"","name","aqi","idx","lat","lon","url","dominentpol","time","tz","t","h","p","pm10","so2","no2","pm25","co","o3","w","r","wd","d","time_estern","uvi","mepaqi","pm1","time_estern"
"1","Belleville, Ontario",50,1,"44.150528","-77.3955","http://aqicn.org/city/canada/ontario/belleville/","pm25","2017-03-24 13:00:00","-05:00",2.11,86,1016,NA,NA,2.8,50,NA,31.2,NA,NA,NA,NA,2017-03-24 14:08:03,NA,NA,NA,2017-03-24 22:01:19
"2","Brampton, Ontario",70,2,"43.69875","-79.780917","http://aqicn.org/city/canada/ontario/brampton/","pm25","2017-03-24 13:00:00","-05:00",5.41,87,1015,NA,NA,11.2,70,NA,21.6,NA,NA,NA,NA,2017-03-24 14:08:03,NA,NA,NA,2017-03-24 22:01:19
"3","Brantford, Ontario",53,3,"43.138611","-80.292639","http://aqicn.org/city/canada/ontario/brantford/","pm25","2017-03-24 13:00:00","-05:00",11.27,76,1016,NA,NA,2.8,53,NA,35.2,NA,NA,NA,NA,2017-03-24 14:08:03,NA,NA,NA,2017-03-24 22:01:19
"4","Burlington, Ontario",61,4,"43.315111","-79.802639","http://aqicn.org/city/canada/ontario/burlington/","pm25","2017-03-24 13:00:00","-05:00",11.27,76,1016,NA,NA,15.8,61,NA,20.8,NA,NA,NA,NA,2017-03-24 14:08:03,NA,NA,NA,2017-03-24 22:01:19
"5","Chatham, Ontario",61,5,"42.403694","-82.208306","http://aqicn.org/city/canada/ontario/chatham/","pm25","2017-03-24 13:00:00","-05:00",16.12,63,1016,NA,NA,3.8,61,NA,32.8,NA,NA,NA,NA,2017-03-24 14:08:03,NA,NA,NA,2017-03-24 22:01:19
"6","Cornwall, Ontario",36,6,"45.017972","-74.735222","http://aqicn.org/city/canada/ontario/cornwall/","o3","2017-03-24 13:00:00","-05:00",1.15,86,1019.5,NA,NA,3.8,30,NA,36.1,NA,NA,NA,NA,2017-03-24 14:08:03,NA,NA,NA,2017-03-24 22:01:19
"7","Dorset, Ontario",26,7,"45.224278","-78.932944","http://aqicn.org/city/canada/ontario/dorset/","o3","2017-03-24 13:00:00","-05:00",1.15,100,1013,NA,NA,NA,25,NA,26.4,NA,NA,NA,NA,2017-03-24 14:08:03,NA,NA,NA,2017-03-24 22:01:19
"8","Grand Bend, Ontario",30,8,"43.333083","-81.742889","http://aqicn.org/city/canada/ontario/grand-bend/","pm25","2017-03-24 13:00:00","-05:00",15.15,54,1015,NA,NA,8.4,30,NA,27.2,NA,NA,NA,NA,2017-03-24 14:08:03,NA,NA,NA,2017-03-24 22:01:19
"9","Guelph, Ontario",46,9,"43.551611","-80.264167","http://aqicn.org/city/canada/ontario/guelph/","pm25","2017-03-24 13:00:00","-05:00",5.41,87,1015,NA,NA,8.4,46,NA,25.6,NA,NA,NA,NA,2017-03-24 14:08:03,NA,NA,NA,2017-03-24 22:01:19
"10","Hamilton Downtown, Ontario",34,10,"43.257778","-79.861667","http://aqicn.org/city/canada/ontario/hamilton-downtown/","pm25","2017-03-24 13:00:00","-05:00",11.27,76,1016,NA,2.9,10.2,34,2.9,29.6,NA,NA,NA,NA,2017-03-24 14:08:03,NA,NA,NA,2017-03-24 22:01:19
"11","Hamilton Mountain, Ontario",34,11,"43.229417","-79.862778","http://aqicn.org/city/canada/ontario/hamilton-mountain/","pm25","2017-03-24 13:00:00","-05:00",11.27,76,1016,NA,1.5,4.7,34,NA,32,NA,NA,NA,NA,2017-03-24 14:08:03,NA,NA,NA,2017-03-24 22:01:19
"12","Hamilton West, Ontario",34,12,"-79.90775","43.257444","http://aqicn.org/city/canada/ontario/hamilton-west/","pm25","2017-03-24 13:00:00","-05:00",11.27,76,1016,NA,NA,6.5,34,NA,28.1,NA,NA,NA,NA,2017-03-24 14:08:03,NA,NA,NA,2017-03-24 22:01:19
"13","Kingston, Ontario",50,13,"-76.521111","44.219722","http://aqicn.org/city/canada/ontario/kingston/","pm25","2017-03-24 12:00:00","-05:00",1.3,100,1017.5,NA,NA,4.7,50,NA,32,NA,NA,NA,NA,2017-03-24 14:08:03,NA,NA,NA,2017-03-24 22:01:19
"14","Kitchener, Ontario",53,14,"43.443833","-80.503806","http://aqicn.org/city/canada/ontario/kitchener/","pm25","2017-03-24 13:00:00","-05:00",11.3,76,1015,NA,NA,7.5,53,NA,25.6,NA,NA,NA,NA,2017-03-24 14:08:03,NA,NA,NA,2017-03-24 22:01:19
"15","London, Ontario",42,15,"42.97446","-81.200858","http://aqicn.org/city/canada/ontario/london/","pm25","2017-03-24 13:00:00","-05:00",11.3,76,1015,NA,NA,4.7,42,NA,32.8,NA,NA,NA,NA,2017-03-24 14:08:03,NA,NA,NA,2017-03-24 22:01:19
"16","Mississauga, Ontario",57,16,"43.54697","-79.65869","http://aqicn.org/city/canada/ontario/mississauga/","pm25","2017-03-24 13:00:00","-05:00",5.41,87,1015,NA,NA,13,57,NA,21.6,NA,NA,NA,NA,2017-03-24 14:08:03,NA,NA,NA,2017-03-24 22:01:19
"17","Morrisburg, Ontario",NA,17,"44.89975","-75.189944","http://aqicn.org/city/canada/ontario/morrisburg/","","","-0500",21.15,88,1009,NA,NA,NA,NA,NA,NA,2.6,0,NA,NA,2017-03-24 14:08:03,NA,NA,NA,2017-03-24 22:01:19
"18","Newmarket, Ontario",68,18,"44.044306","-79.48325","http://aqicn.org/city/canada/ontario/newmarket/","pm25","2017-03-24 13:00:00","-05:00",5.16,93,1016,NA,NA,13,68,NA,22.4,NA,NA,NA,NA,2017-03-24 14:08:03,NA,NA,NA,2017-03-24 22:01:19
"19","North Bay, Ontario",34,19,"46.323194","-79.449278","http://aqicn.org/city/canada/ontario/north-bay/","pm25","2017-03-24 13:00:00","-05:00",-0.85,92,1014,NA,NA,5.6,34,NA,28.9,NA,NA,NA,NA,2017-03-24 14:08:03,NA,NA,NA,2017-03-24 22:01:19
"20","Oakville, Ontario",57,20,"43.486917","-79.702278","http://aqicn.org/city/canada/ontario/oakville/","pm25","2017-03-24 13:00:00","-05:00",11.27,76,1016,NA,NA,13,57,NA,20.8,NA,NA,NA,NA,2017-03-24 14:08:03,NA,NA,NA,2017-03-24 22:01:19
"21","Oshawa, Ontario",42,21,"43.945944","-78.894917","http://aqicn.org/city/canada/ontario/oshawa/","pm25","2017-03-24 12:00:00","-05:00",3.54,93,1016,NA,NA,10.2,42,NA,25.6,NA,NA,NA,NA,2017-03-24 14:08:03,NA,NA,NA,2017-03-24 22:01:19
"22","Ottawa Central, Ontario",42,22,"45.382528","-75.714194","http://aqicn.org/city/canada/ontario/ottawa-central/","pm25","2017-03-24 13:00:00","-05:00",-1.65333333333333,92,1019.33333333333,NA,NA,7.5,42,NA,28.9,NA,NA,NA,NA,2017-03-24 14:08:03,NA,NA,NA,2017-03-24 22:01:19
"23","Ottawa Downtown, Ontario",38,23,"45.434333","-75.676","http://aqicn.org/city/canada/ontario/ottawa-downtown/","pm25","2017-03-24 13:00:00","-05:00",-1.65333333333333,92,1019.33333333333,NA,1.5,10.2,38,2.8,28.9,NA,NA,NA,NA,2017-03-24 14:08:03,NA,NA,NA,2017-03-24 22:01:19
"24","Parry Sound, Ontario",38,24,"45.337861","-80.038167","http://aqicn.org/city/canada/ontario/parry-sound/","pm25","2017-03-24 13:00:00","-05:00",3.42,100,995.83,NA,NA,6.5,38,NA,23.3,NA,NA,NA,NA,2017-03-24 14:08:03,NA,NA,NA,2017-03-24 22:01:19
"25","Petawawa, Ontario",34,25,"-77.441194","45.996722","http://aqicn.org/city/canada/ontario/petawawa/","o3","2017-03-24 13:00:00","-05:00",-0.85,100,1017,NA,NA,NA,30,NA,33.6,NA,NA,NA,NA,2017-03-24 14:08:03,NA,NA,NA,2017-03-24 22:01:19
"26","Peterborough, Ontario",59,26,"44.301917","-78.346222","http://aqicn.org/city/canada/ontario/peterborough/","pm25","2017-03-24 13:00:00","-05:00",3.78,93,1015,NA,NA,10.2,59,NA,24.1,NA,NA,NA,NA,2017-03-24 14:08:03,NA,NA,NA,2017-03-24 22:01:19
"27","Port Stanley, Ontario",65,27,"42.672083","-81.162889","http://aqicn.org/city/canada/ontario/port-stanley/","pm25","2017-03-24 13:00:00","-05:00",11.3,76,1015,NA,NA,2.8,65,NA,36.1,NA,NA,NA,NA,2017-03-24 14:08:03,NA,NA,NA,2017-03-24 22:01:19
"28","Sarnia, Ontario",59,28,"-82.405083","42.982278","http://aqicn.org/city/canada/ontario/sarnia/","pm25","2017-03-24 13:00:00","-05:00",15.15,54,1015,NA,2.9,9.3,59,NA,26.4,NA,NA,NA,NA,2017-03-24 14:08:03,NA,NA,NA,2017-03-24 22:01:19
"29","Sault Ste Marie, Ontario",38,29,"46.533194","-84.309917","http://aqicn.org/city/canada/ontario/sault-ste-marie/","pm25","2017-03-24 13:00:00","-05:00",0.82,90,1016,NA,1.5,7.5,38,NA,19.2,NA,NA,NA,NA,2017-03-24 14:08:03,NA,NA,NA,2017-03-24 22:01:19
"30","St. Catharines, Ontario",46,30,"43.160056","-79.23475","http://aqicn.org/city/canada/ontario/st.-catharines/","pm25","2017-03-24 13:00:00","-05:00",11.91,66,1016,NA,NA,6.5,46,NA,32,NA,NA,NA,NA,2017-03-24 14:08:03,NA,NA,NA,2017-03-24 22:01:19
"31","Sudbury, Ontario",46,31,"46.49194","-81.003105","http://aqicn.org/city/canada/ontario/sudbury/","pm25","2017-03-24 13:00:00","-05:00",-1.85,92,1013,NA,1.5,11.2,46,NA,21.6,NA,NA,NA,NA,2017-03-24 14:08:03,NA,NA,NA,2017-03-24 22:01:19
"32","Thunder Bay, Ontario",17,32,"48.379389","-89.290167","http://aqicn.org/city/canada/ontario/thunder-bay/","o3","2017-03-24 13:00:00","-05:00",3.15,86,1017,NA,NA,11.2,13,NA,16.8,NA,NA,NA,NA,2017-03-24 14:08:03,NA,NA,NA,2017-03-24 22:01:19
"33","Tiverton, Ontario",30,33,"44.314472","-81.549722","http://aqicn.org/city/canada/ontario/tiverton/","o3","2017-03-24 13:00:00","-05:00",-1.68,84,1018,NA,NA,4.7,91,NA,29.6,NA,NA,NA,NA,2017-03-24 14:08:03,NA,NA,NA,2017-03-24 22:01:19
"34","Toronto Downtown, Ontario",57,34,"-79.388111","43.662972","http://aqicn.org/city/canada/ontario/toronto-downtown/","pm25","2017-03-24 13:00:00","-05:00",5.16,93,1016,NA,NA,13,57,NA,25.6,NA,NA,NA,NA,2017-03-24 14:08:03,NA,NA,NA,2017-03-24 22:01:19
"35","Toronto East, Ontario",53,35,"43.747917","-79.274056","http://aqicn.org/city/canada/ontario/toronto-east/","pm25","2017-03-24 13:00:00","-05:00",5.16,93,1016,NA,NA,13.9,53,NA,24.1,NA,NA,NA,NA,2017-03-24 14:08:03,NA,NA,NA,2017-03-24 22:01:19
"36","Toronto North, Ontario",57,36,"43.781611","-79.417722","http://aqicn.org/city/canada/ontario/toronto-north/","pm25","2017-03-24 13:00:00","-05:00",5.16,93,1016,NA,1.5,20.4,57,NA,17.6,NA,NA,NA,NA,2017-03-24 14:08:03,NA,NA,NA,2017-03-24 22:01:19
"37","Toronto West, Ontario",63,37,"43.709444","-79.5435","http://aqicn.org/city/canada/ontario/toronto-west/","pm25","2017-03-24 13:00:00","-05:00",5.41,87,1015,NA,1.5,20.4,63,3.5,17.6,NA,NA,NA,NA,2017-03-24 14:08:03,NA,NA,NA,2017-03-24 22:01:19
"38","Windsor Downtown, Ontario",46,38,"42.315778","-83.043667","http://aqicn.org/city/canada/ontario/windsor-downtown/","pm25","2017-03-24 13:00:00","-05:00",16.13,55,1016,NA,7.2,9.3,46,3.5,31.2,NA,NA,NA,NA,2017-03-24 14:08:03,NA,NA,NA,2017-03-24 22:01:19
"39","Windsor West, Ontario",61,39,"42.292889","-83.073139","http://aqicn.org/city/canada/ontario/windsor-west/","pm25","2017-03-24 13:00:00","-05:00",16.13,55,1016,NA,1.5,9.3,61,NA,30.4,NA,NA,NA,NA,2017-03-24 14:08:03,NA,NA,NA,2017-03-24 22:01:19
"40","Inuvik, NorthWestTerritories",17,40,"68.356994","-133.714063","http://aqicn.org/city/canada/northwestterritories/inuvik/","pm25","2017-03-24 10:00:00","-05:00",-20.35,79.5,1017,NA,0.2,5.8,17,2.4,7.2,2.6,NA,NA,NA,2017-03-24 14:08:03,NA,NA,NA,2017-03-24 22:01:19
"41","Norman Wells, NorthWestTerritories",22,41,"65.279676","-126.812887","http://aqicn.org/city/canada/northwestterritories/norman-wells/","o3","2017-03-24 11:00:00","-05:00",-20.35,79.5,1017,5,1.2,2.6,NA,NA,21.9,2.6,NA,NA,NA,2017-03-24 14:08:03,NA,NA,NA,2017-03-24 22:01:19
"42","Yellowknife, NorthWestTerritories",29,42,"62.452084","-114.364031","http://aqicn.org/city/canada/northwestterritories/yellowknife/","o3","2017-03-24 11:00:00","-05:00",-15.85,71,1015,8,1.3,1.6,25,2.2,29.4,5.1,NA,NA,NA,2017-03-24 14:08:03,NA,NA,NA,2017-03-24 22:01:19
"43","White Plains, New York",27,58,"41.0522","-73.7642","http://aqicn.org/city/usa/newyork/white-plains/","o3","2017-03-24 10:00:00","-04:00",8,37,1027,NA,NA,NA,17,NA,27.2,3.6,NA,260,-6,2017-03-24 14:08:03,NA,NA,NA,2017-03-24 22:01:19
"44","The City College of New York",24,59,"40.8197","-73.9481","http://aqicn.org/city/usa/newyork/ccny/","pm25","2017-03-24 10:00:00","-04:00",8,37,1027,NA,NA,22.5,24,2.3,23.3,3.6,NA,260,-6,2017-03-24 14:08:03,NA,NA,NA,2017-03-24 22:01:19
"45","Intermediate School 74, New York",22,60,"40.814701","-73.886703","http://aqicn.org/city/usa/newyork/is-74/","pm25","2017-03-24 10:00:00","-04:00",7,39,1029,NA,NA,23.8,22,3.4,NA,3.6,NA,250,-6,2017-03-24 14:08:03,NA,NA,NA,2017-03-24 22:01:19
"46","Public School 314, New York",9,61,"40.641819","-74.018707","http://aqicn.org/city/usa/newyork/ps-314/","pm25","2017-03-24 10:00:00","-04:00",7,39,1029,NA,NA,NA,9,NA,36.1,3.6,NA,250,-6,2017-03-24 14:08:03,NA,NA,NA,2017-03-24 22:01:19
"47","Maspeth, New York",13,62,"40.7269","-73.8933","http://aqicn.org/city/usa/newyork/maspeth/","pm25","2017-03-24 10:00:00","-04:00",7,39,1029,NA,NA,22.5,13,2.3,NA,3.6,NA,250,-6,2017-03-24 14:08:03,NA,NA,NA,2017-03-24 22:01:19
"48","Eisenhower Park, New York",18,63,"40.7447","-73.5869","http://aqicn.org/city/usa/newyork/eisenhower-park/","pm25","2017-03-24 10:00:00","-04:00",7,39,1029,NA,NA,NA,18,NA,34.4,3.6,NA,250,-6,2017-03-24 14:08:03,NA,NA,NA,2017-03-24 22:01:19
"49","Intermediate School 143, New York",22,64,"40.8492","-73.9319","http://aqicn.org/city/usa/newyork/is-143/","pm25","2017-03-24 11:00:00","-04:00",8,37,1027,NA,NA,22.5,22,3.4,24.8,3.6,NA,260,-6,2017-03-24 14:08:03,NA,NA,NA,2017-03-24 22:01:19
"50","Fresh Kills West, New York",8,65,"40.5802","-74.1994","http://aqicn.org/city/usa/newyork/fresh-kills-west/","pm25","2017-03-24 10:00:00","-04:00",7,39,1029,NA,NA,NA,8,NA,36.1,3.6,NA,250,-6,2017-03-24 14:08:03,NA,NA,NA,2017-03-24 22:01:19
"51","Albany, Oregon",10,67,"-123.091457","44.61569","http://aqicn.org/city/usa/oregon/albany/","pm25","2017-03-24 10:00:00","-08:00",8.15,93,1011,8,NA,NA,10,NA,NA,NA,NA,NA,NA,2017-03-24 14:08:03,NA,NA,NA,2017-03-24 22:01:19
"52","Applegate Valley, Oregon",11,68,"42.290094","-123.2321","http://aqicn.org/city/usa/oregon/applegate-valley/","pm10","2017-03-24 10:00:00","-08:00",4.08,81,1013,11,NA,NA,9,NA,NA,NA,NA,NA,NA,2017-03-24 14:08:03,NA,NA,NA,2017-03-24 22:01:19
"53","Baker City, Oregon",11,69,"44.78822","-117.8446","http://aqicn.org/city/usa/oregon/baker-city/","pm10","2017-03-24 10:00:00","-08:00",4.39,75,1012,11,NA,NA,10,NA,NA,NA,NA,NA,NA,2017-03-24 14:08:03,NA,NA,NA,2017-03-24 22:01:19
"54","Beaverton, Oregon",26,70,"45.4702","-122.8159","http://aqicn.org/city/usa/oregon/beaverton/","o3","2017-03-24 10:00:00","-08:00",8.15,93,1011,8,1.5,12.6,9,3.9,25.6,NA,NA,NA,NA,2017-03-24 14:08:03,NA,NA,NA,2017-03-24 22:01:19
"55","Bend, Oregon",11,71,"-121.312554","44.063916","http://aqicn.org/city/usa/oregon/bend/","pm10","2017-03-24 10:00:00","-08:00",4.3,79,25.97,11,NA,NA,7,NA,NA,6.1,NA,NA,NA,2017-03-24 14:08:03,NA,NA,NA,2017-03-24 22:01:19
"56","Burns, Oregon",18,72,"43.58925","-119.048302","http://aqicn.org/city/usa/oregon/burns/","pm25","2017-03-24 10:00:00","-08:00",3.5,75,25.73,14,NA,NA,18,NA,NA,0.8,NA,NA,NA,2017-03-24 14:08:03,NA,NA,NA,2017-03-24 22:01:19
"57","Cave Junction, Oregon",13,73,"-123.64835","42.1617","http://aqicn.org/city/usa/oregon/cave-junction/","pm25","2017-03-24 10:00:00","-08:00",6.22,100,1011,12,NA,NA,13,NA,NA,NA,NA,NA,NA,2017-03-24 14:08:03,NA,NA,NA,2017-03-24 22:01:19
"58","Corvallis, Oregon",8,74,"44.5884","-123.2673","http://aqicn.org/city/usa/oregon/corvallis/","pm25","2017-03-24 10:00:00","-08:00",8.15,93,1011,8,NA,NA,8,NA,NA,NA,NA,NA,NA,2017-03-24 14:08:03,NA,NA,NA,2017-03-24 22:01:19
"59","Enterprise, Oregon",12,75,"45.426351","-117.296066","http://aqicn.org/city/usa/oregon/enterprise/","pm25","2017-03-24 09:00:00","-08:00",6.15,75,1013,12,NA,NA,12,NA,NA,NA,NA,NA,NA,2017-03-24 14:08:03,NA,NA,NA,2017-03-24 22:01:19
"60","Grants Pass, Oregon",12,76,"42.434149","-123.348466","http://aqicn.org/city/usa/oregon/grants-pass/","pm25","2017-03-24 10:00:00","-08:00",7.1,81,28.97,12,NA,NA,12,NA,NA,0.9,NA,NA,NA,2017-03-24 14:08:03,NA,NA,NA,2017-03-24 22:01:19
"61","Hillsboro, Oregon",26,78,"45.528501","-122.972398","http://aqicn.org/city/usa/oregon/hillsboro/","o3","2017-03-24 10:00:00","-08:00",8.37,87,1011,8,1.5,12.6,8,3.9,25.6,NA,NA,NA,NA,2017-03-24 14:08:03,NA,NA,NA,2017-03-24 22:01:19
"62","John Day, Oregon",11,79,"44.417999","-118.951302","http://aqicn.org/city/usa/oregon/john-day/","pm10","2017-03-24 10:00:00","-08:00",6.15,75,1013,11,NA,NA,10,NA,NA,NA,NA,NA,NA,2017-03-24 14:08:03,NA,NA,NA,2017-03-24 22:01:19
"63","Klamath Falls, Oregon",9,80,"42.190296","-121.731369","http://aqicn.org/city/usa/oregon/klamath-falls/","pm10","2017-03-24 10:00:00","-08:00",3.4,62,25.71,9,NA,NA,6,NA,NA,13.5,NA,NA,NA,2017-03-24 14:08:03,NA,NA,NA,2017-03-24 22:01:19
"64","La Grande, Oregon",14,81,"45.339","-118.095206","http://aqicn.org/city/usa/oregon/la-grande/","pm10","2017-03-24 10:00:00","-08:00",5.9,85,27.01,14,NA,NA,12,NA,NA,9,NA,NA,NA,2017-03-24 14:08:03,NA,NA,NA,2017-03-24 22:01:19
"65","Lakeview, Oregon",10,82,"42.189215","-120.353969","http://aqicn.org/city/usa/oregon/lakeview/","pm25","2017-03-24 10:00:00","-08:00",4.8,100,25.11,9,NA,NA,10,NA,NA,14.1,NA,NA,NA,2017-03-24 14:08:03,NA,NA,NA,2017-03-24 22:01:19
"66","Medford, Oregon",11,84,"42.31411","-122.87923","http://aqicn.org/city/usa/oregon/medford/","pm10","2017-03-24 10:00:00","-08:00",27.555,100,1023.065,11,NA,NA,17,NA,NA,NA,NA,NA,NA,2017-03-24 14:08:03,NA,NA,NA,2017-03-24 22:01:19
"67","Pendleton, Oregon",20,85,"45.652231","-118.823033","http://aqicn.org/city/usa/oregon/pendleton/","pm25","2017-03-24 10:00:00","-08:00",7.11,93,28.77,12,NA,NA,20,NA,28,0.4,NA,NA,NA,2017-03-24 14:08:03,NA,NA,NA,2017-03-24 22:01:19
"68","Portland, Oregon",8,86,"45.496641","-122.602877","http://aqicn.org/city/usa/oregon/portland/","pm25","2017-03-24 10:00:00","-08:00",7.8,NA,29.62,8,1.5,7.7,8,3.9,0.1,6.6,NA,NA,NA,2017-03-24 14:08:03,NA,NA,NA,2017-03-24 22:01:19
"69","Prineville, Oregon",11,87,"44.299787","-120.844773","http://aqicn.org/city/usa/oregon/prineville/","pm10","2017-03-24 10:00:00","-08:00",7.9,58,26.87,11,NA,NA,9,NA,NA,8.6,NA,NA,NA,2017-03-24 14:08:03,NA,NA,NA,2017-03-24 22:01:19
"70","Roseburg, Oregon",11,88,"43.2266","-123.36479","http://aqicn.org/city/usa/oregon/roseburg/","pm10","2017-03-24 10:00:00","-08:00",4.265,78,1012.5,11,NA,NA,7,NA,NA,NA,NA,NA,NA,2017-03-24 14:08:03,NA,NA,NA,2017-03-24 22:01:19
"71","Salem, Oregon",26,89,"44.943114","-123.005934","http://aqicn.org/city/usa/oregon/salem/","o3","2017-03-24 10:00:00","-08:00",8.15,93,1011,8,NA,NA,9,NA,25.6,NA,NA,NA,NA,2017-03-24 14:08:03,NA,NA,NA,2017-03-24 22:01:19
"72","Shady Cove, Oregon",16,90,"42.623225","-122.810158","http://aqicn.org/city/usa/oregon/shady-cove/","pm25","2017-03-24 10:00:00","-08:00",4.265,78,1012.5,12,NA,NA,16,NA,NA,NA,NA,NA,NA,2017-03-24 14:08:03,NA,NA,NA,2017-03-24 22:01:19
"73","Sisters, Oregon",NA,92,"44.2921","-121.5555","http://aqicn.org/city/usa/oregon/sisters/","","2017-03-22 08:00:00","-08:00",6.01,73,NA,1,NA,NA,87,NA,NA,NA,NA,NA,NA,2017-03-24 14:08:03,NA,NA,NA,2017-03-24 22:01:19
"74","Sweet Home, Oregon",8,93,"44.3958","-122.7305","http://aqicn.org/city/usa/oregon/sweet-home/","pm25","2017-03-24 10:00:00","-08:00",8.61,87,1012,7,NA,NA,8,NA,NA,NA,NA,NA,NA,2017-03-24 14:08:03,NA,NA,NA,2017-03-24 22:01:19
"75","The Dalles, Oregon",25,94,"45.602419","-121.203387","http://aqicn.org/city/usa/oregon/the-dalles/","pm25","2017-03-24 10:00:00","-08:00",8.15,93,1011,15,NA,NA,25,NA,NA,NA,NA,NA,NA,2017-03-24 14:08:03,NA,NA,NA,2017-03-24 22:01:19
"76","Division St, Aberdeen, Washington",25,96,"46.97228","-123.83173","http://aqicn.org/city/usa/washington/aberdeen/division-st/","pm25","2017-03-24 09:00:00","-07:00",8.15,87,1008,NA,NA,NA,25,NA,NA,NA,NA,NA,NA,2017-03-24 14:08:03,NA,NA,NA,2017-03-24 22:01:19
"77","W 12th Ave, Airway Heights, Washington",37,97,"47.64476","-117.58913","http://aqicn.org/city/usa/washington/airway-heights/w-12th-ave/","pm25","2017-03-24 09:00:00","-07:00",3.65,86,1012,16,NA,NA,37,NA,NA,NA,NA,NA,NA,2017-03-24 14:08:03,NA,NA,NA,2017-03-24 22:01:19
"78","Bartholomew Rd, Anacortes, Washington",24,99,"48.4654","-122.56","http://aqicn.org/city/usa/washington/anacortes/bartholomew-rd/","o3","2017-03-24 08:00:00","-07:00",6.49,81,1006,NA,NA,NA,1,NA,24.1,NA,NA,NA,NA,2017-03-24 14:08:03,NA,NA,NA,2017-03-24 22:01:19
"79","Bellevue Way, Bellevue, Washington",17,100,"47.61311","-122.20161","http://aqicn.org/city/usa/washington/bellevue/bellevue-way/","o3","2017-03-24 09:00:00","-07:00",7.98,100,1009,NA,NA,35.2,5,5.9,16.8,NA,NA,NA,NA,2017-03-24 14:08:03,NA,NA,NA,2017-03-24 22:01:19
"80","Yew St, Bellingham, Washington",22,101,"-122.44028","48.76278","http://aqicn.org/city/usa/washington/bellingham/yew-st/","o3","2017-03-24 08:00:00","-07:00",7.82,81,1006,9,0.1,7.7,3,0.1,21.6,NA,NA,NA,NA,2017-03-24 14:08:03,NA,NA,NA,2017-03-24 22:01:19
"81","Spruce Ave, Bremerton, Washington",13,102,"47.592675","-122.62739","http://aqicn.org/city/usa/washington/bremerton/spruce-ave/","pm25","2017-03-24 09:00:00","-07:00",8.32,81,1006,NA,NA,20.4,13,2.4,8.8,NA,NA,NA,NA,2017-03-24 14:08:03,NA,NA,NA,2017-03-24 22:01:19
"82","Cheeka Peak, Washington",35,103,"48.29786","-124.62491","http://aqicn.org/city/usa/washington/cheeka-peak/","o3","2017-03-24 09:00:00","-07:00",-17.8,87,1006,NA,1.5,NA,4,1.5,35.2,5.5,NA,NA,NA,2017-03-24 14:08:03,NA,NA,NA,2017-03-24 22:01:19
"83","Market Blvd, Chehalis, Washington",8,104,"-122.96732","46.66409","http://aqicn.org/city/usa/washington/chehalis/market-blvd/","pm25","2017-03-24 09:00:00","-07:00",7.98,87,1008,NA,NA,NA,8,NA,NA,NA,NA,NA,NA,2017-03-24 14:08:03,NA,NA,NA,2017-03-24 22:01:19
"84","13th St, Clarkston, Washington",26,105,"46.425416","-117.060445","http://aqicn.org/city/usa/washington/clarkston/13th-st/","pm25","2017-03-24 09:00:00","-07:00",6.44333333333333,66.6666666666667,1013,NA,NA,NA,26,NA,NA,NA,NA,NA,NA,2017-03-24 14:08:03,NA,NA,NA,2017-03-24 22:01:19
"85","Greenbluff Rd, Colbert, Washington",30,106,"-117.34327","47.8082264","http://aqicn.org/city/usa/washington/colbert/greenbluff-rd/","pm25","2017-03-24 09:00:00","-07:00",2.98,93,1012,16,NA,NA,30,NA,NA,NA,NA,NA,NA,2017-03-24 14:08:03,NA,NA,NA,2017-03-24 22:01:19
"86","Oak St S, Colville, Washington",42,107,"48.54296","-117.90326","http://aqicn.org/city/usa/washington/colville/oak-st-s/","pm10",NA,"2016-12-05 17:00:00",-3,68,1018,42,NA,NA,35,NA,NA,NA,NA,NA,NA,2017-03-24 14:08:03,NA,NA,NA,2017-03-24 22:01:19
"87","Loomis, Custer, Washington",19,108,"48.95074","-122.55441","http://aqicn.org/city/usa/washington/custer/loomis/","o3","2017-03-24 09:00:00","-07:00",6.49,81,1006,5,0.1,4.6,5,0.1,19.2,NA,NA,NA,NA,2017-03-24 14:08:03,NA,NA,NA,2017-03-24 22:01:19
"88","Fir St, Darrington, Washington",13,109,"48.2468","-121.6031","http://aqicn.org/city/usa/washington/darrington/fir-st/","pm25","2017-03-24 09:00:00","-07:00",4.9,100,1009,NA,NA,NA,13,NA,NA,1,NA,NA,NA,2017-03-24 14:08:03,NA,NA,NA,2017-03-24 22:01:19
"89","W Main St, Dayton, Washington",41,110,"-117.985","46.318","http://aqicn.org/city/usa/washington/dayton/w-main-st/","pm25","2017-03-24 09:00:00","-07:00",8.15,93,1012,NA,NA,NA,41,NA,NA,NA,NA,NA,NA,2017-03-24 14:08:03,NA,NA,NA,2017-03-24 22:01:19
"90","Ruby St, Ellensburg, Washington",30,111,"46.99364","-120.545","http://aqicn.org/city/usa/washington/ellensburg/ruby-st/","pm25","2017-03-24 09:00:00","-07:00",4.10333333333333,86,1010,1.05,NA,NA,30,NA,NA,NA,NA,NA,NA,2017-03-24 14:08:03,NA,NA,NA,2017-03-24 22:01:19
"91","Harrah N Harrah Rd, Washington",21,112,"46.4085229","-120.5441734","http://aqicn.org/city/usa/washington/harrah-n-harrah-rd/","pm10",NA,"2016-12-05 17:00:00",4,81,969,21,NA,NA,17,NA,NA,NA,NA,NA,NA,2017-03-24 14:08:03,NA,NA,NA,2017-03-24 22:01:19
"92","Metaline, Kennewick, Washington",33,113,"46.21835","-119.20152","http://aqicn.org/city/usa/washington/kennewick/metaline/","pm25","2017-03-24 09:00:00","-07:00",6.8,93,1012,10,NA,NA,33,NA,NA,1.3,NA,NA,NA,2017-03-24 14:08:03,NA,NA,NA,2017-03-24 22:01:19
"93","Central and James, Kent, Washington",18,114,"47.38614","-122.23195","http://aqicn.org/city/usa/washington/kent/central-and-james/","pm25","2017-03-24 09:00:00","-07:00",8.45,87,1009,NA,NA,20.4,18,3.2,7.3,NA,NA,NA,NA,2017-03-24 14:08:03,NA,NA,NA,2017-03-24 22:01:19
"94","College St, Lacey, Washington",4,115,"-122.82161","47.02938","http://aqicn.org/city/usa/washington/lacey/college-st/","pm25","2017-03-24 09:00:00","-07:00",7.98,87,1008,NA,NA,NA,4,NA,NA,1.7,NA,NA,NA,2017-03-24 14:08:03,NA,NA,NA,2017-03-24 22:01:19
"95","Hill St, LaCrosse, Washington",11,116,"46.8153","-117.8739","http://aqicn.org/city/usa/washington/lacrosse/hill-st/","pm25","2017-03-24 09:00:00","-07:00",6.82,100,960.25,NA,NA,NA,11,NA,NA,NA,NA,NA,NA,2017-03-24 14:08:03,NA,NA,NA,2017-03-24 22:01:19
"96","Evans St, Leavenworth, Washington",4,118,"-120.6647","47.59886","http://aqicn.org/city/usa/washington/leavenworth/evans-st/","pm25","2017-03-24 09:00:00","-07:00",2.31,100,1011,NA,NA,NA,4,NA,NA,NA,NA,NA,NA,2017-03-24 14:08:03,NA,NA,NA,2017-03-24 22:01:19
"97","30th Ave, Longview, Washington",11,120,"-122.961944","46.139443","http://aqicn.org/city/usa/washington/longview/30th-ave/","pm25","2017-03-24 09:00:00","-07:00",8.37,87,1011,7,NA,NA,11,NA,NA,NA,NA,NA,NA,2017-03-24 14:08:03,NA,NA,NA,2017-03-24 22:01:19
"98","212 (ULT), Lynnwood, Washington",11,121,"47.8064","-122.3167","http://aqicn.org/city/usa/washington/lynnwood/212-ult/","pm25","2017-03-24 09:00:00","-07:00",7.98,100,1009,NA,NA,35.2,11,2.4,8.8,0.7,NA,NA,NA,2017-03-24 14:08:03,NA,NA,NA,2017-03-24 22:01:19
"99"," Azure Way, Maple Falls , Washington",9,122,"48.9477","-122.1471","http://aqicn.org/city/usa/washington/maple-falls/azure-way/","pm10","2017-03-24 08:00:00","-07:00",7.82,81,1006,9,0.1,7.7,15,0.1,6.8,NA,NA,NA,NA,2017-03-24 14:08:03,NA,NA,NA,2017-03-24 22:01:19
"100","7th Ave, Marysville, Washington",12,123,"48.054315","-122.171529","http://aqicn.org/city/usa/washington/marysville/7th-ave/","pm25","2017-03-24 09:00:00","-07:00",8.3,100,1009,NA,NA,NA,12,2.4,24.8,2.4,NA,NA,NA,2017-03-24 14:08:03,NA,NA,NA,2017-03-24 22:01:19
"101","Pepiot Way, Mesa, Washington",18,124,"46.5754","-119.0021","http://aqicn.org/city/usa/washington/mesa/pepiot-way/","pm25","2017-03-24 09:00:00","-07:00",6.15,87,1011,10,NA,NA,18,NA,NA,NA,NA,NA,NA,2017-03-24 14:08:03,NA,NA,NA,2017-03-24 22:01:19
"102","Balsam St, Moses Lake, Washington",17,125,"47.1303","-119.2737","http://aqicn.org/city/usa/washington/moses-lake/balsam-st/","pm25","2017-03-24 09:00:00","-07:00",6.15,87,1011,NA,NA,NA,17,NA,NA,NA,NA,NA,NA,2017-03-24 14:08:03,NA,NA,NA,2017-03-24 22:01:19
"103","S Second St, Mt Vernon, Washington",3,126,"-122.3376","48.4102","http://aqicn.org/city/usa/washington/mt-vernon/s-second-st/","pm25","2017-03-24 09:00:00","-07:00",7.98,100,1009,NA,NA,NA,3,NA,24.8,NA,NA,NA,NA,2017-03-24 14:08:03,NA,NA,NA,2017-03-24 22:01:19
"104","Makah Tribe, Neah Bay 2, Washington",8,127,"48.366058","-124.610045","http://aqicn.org/city/usa/washington/neah-bay-2/makah-tribe/","pm25","2017-03-24 08:00:00","-07:00",7.15,87,1007,NA,1.5,NA,8,1.4,32.8,NA,NA,NA,NA,2017-03-24 14:08:03,NA,NA,NA,2017-03-24 22:01:19
"105","North Bend Way, North Bend, Washington",20,128,"47.49022","-121.77278","http://aqicn.org/city/usa/washington/north-bend/north-bend-way/","o3","2017-03-24 07:00:00","-07:00",6.8,100,1009,NA,NA,11.2,4,3.5,20,4,NA,NA,NA,2017-03-24 14:08:03,NA,NA,NA,2017-03-24 22:01:19
"106","SW 6th, Oak Harbor, Washington",24,129,"48.2944","-122.66","http://aqicn.org/city/usa/washington/oak-harbor/sw-6th/","o3","2017-03-24 08:00:00","-07:00",8.32,81,1006,NA,NA,NA,7,NA,24.1,NA,NA,NA,NA,2017-03-24 14:08:03,NA,NA,NA,2017-03-24 22:01:19
"107","Colville Tribe, Omak, Washington",21,131,"48.39999","-119.51896","http://aqicn.org/city/usa/washington/omak/colville-tribe/","pm25","2017-03-24 09:00:00","-07:00",3.8,93,1012,NA,NA,NA,21,NA,NA,0.3,NA,NA,NA,2017-03-24 14:08:03,NA,NA,NA,2017-03-24 22:01:19
"108","San Juan Ave, Port Townsend, Washington",24,133,"48.12919","-122.77897","http://aqicn.org/city/usa/washington/port-townsend/san-juan-ave/","o3","2017-03-24 08:00:00","-07:00",8.32,81,1006,NA,NA,NA,14,NA,24.1,NA,NA,NA,NA,2017-03-24 14:08:03,NA,NA,NA,2017-03-24 22:01:19
"109","Dexter SE, Pullman, Washington",8,134,"-117.18014","46.7244","http://aqicn.org/city/usa/washington/pullman/dexter-se/","pm25","2017-03-24 09:00:00","-07:00",6.42,70,1012.5,NA,NA,NA,8,NA,NA,NA,NA,NA,NA,2017-03-24 14:08:03,NA,NA,NA,2017-03-24 22:01:19
"110","128th St, Puyallup, Washington",7,135,"47.1401","-122.3004","http://aqicn.org/city/usa/washington/puyallup/128th-st/","o3","2017-03-24 08:00:00","-07:00",8.8,87,1009,NA,NA,NA,1,NA,7.3,2.6,NA,NA,NA,2017-03-24 14:08:03,NA,NA,NA,2017-03-24 22:01:19
"111","Puyallup Tribe, Puyallup, Washington",11,136,"47.2372495","-122.409946","http://aqicn.org/city/usa/washington/puyallup/puyallup-tribe/","o3",NA,"2016-12-05 17:00:00",3,93,1016,NA,NA,NA,10,3,11,NA,NA,NA,NA,2017-03-24 14:08:03,NA,NA,NA,2017-03-24 22:01:19
"112","Alder St, Ritzville, Washington",8,138,"47.128","-118.3819","http://aqicn.org/city/usa/washington/ritzville/alder-st/","pm25","2017-03-24 08:00:00","-07:00",4.94,97,960.25,NA,NA,NA,8,NA,NA,NA,NA,NA,NA,2017-03-24 14:08:03,NA,NA,NA,2017-03-24 22:01:19
"113","Josephine St, Rosalia, Washington",10,139,"47.23136","-117.36856","http://aqicn.org/city/usa/washington/rosalia/josephine-st/","pm25","2017-03-24 09:00:00","-07:00",6.42,70,1012.5,NA,NA,NA,10,NA,NA,NA,NA,NA,NA,2017-03-24 14:08:03,NA,NA,NA,2017-03-24 22:01:19
"114","Beacon Hill, Seattle, Washington",25,140,"47.5713","-122.3057","http://aqicn.org/city/usa/washington/seattle/beacon-hill/","pm25","2017-03-24 09:00:00","-07:00",8.1,97.7,1009,NA,NA,17.6,25,2.9,16.8,2,NA,NA,NA,2017-03-24 14:08:03,NA,NA,NA,2017-03-24 22:01:19
"115","Duwamish, Seattle, Washington",33,141,"47.559975","-122.338265","http://aqicn.org/city/usa/washington/seattle/duwamish/","pm25","2017-03-24 09:00:00","-07:00",7.7,100,1009,NA,NA,20.4,33,2.9,7.3,1.6,NA,NA,NA,2017-03-24 14:08:03,NA,NA,NA,2017-03-24 22:01:19
"116","Olive St, Seattle, Washington",40,142,"47.6171136","-122.3044689","http://aqicn.org/city/usa/washington/seattle/olive-st/","pm25","2017-03-24 08:00:00","-07:00",7.8,100,1009,NA,NA,35.2,40,5.9,6.4,1.7,NA,NA,NA,2017-03-24 14:08:03,NA,NA,NA,2017-03-24 22:01:19
"117","South Park, Seattle, Washington",23,144,"47.53091","-122.3208","http://aqicn.org/city/usa/washington/seattle/south-park/","pm25","2017-03-24 09:00:00","-07:00",7.98,100,1009,NA,NA,20.4,23,2.9,7.3,NA,NA,NA,NA,2017-03-24 14:08:03,NA,NA,NA,2017-03-24 22:01:19
"118","W Franklin, Shelton, Washington",23,145,"-123.10081","47.21355","http://aqicn.org/city/usa/washington/shelton/w-franklin/","pm25","2017-03-24 09:00:00","-07:00",7.98,87,1008,NA,NA,NA,23,NA,NA,NA,NA,NA,NA,2017-03-24 14:08:03,NA,NA,NA,2017-03-24 22:01:19
"119","Augusta Ave, Spokane, Washington",42,146,"47.672482","-117.36485","http://aqicn.org/city/usa/washington/spokane/augusta-ave/","pm25","2017-03-24 09:00:00","-07:00",4.8,93,1012,12,NA,NA,42,NA,NA,2.8,NA,NA,NA,2017-03-24 14:08:03,NA,NA,NA,2017-03-24 22:01:19
"120","E Broadway Ave, Spokane, Washington",34,148,"47.663962","-117.25765","http://aqicn.org/city/usa/washington/spokane/e-broadway-ave/","pm25","2017-03-24 09:00:00","-07:00",2.98,93,1012,12,NA,NA,34,NA,NA,NA,NA,NA,NA,2017-03-24 14:08:03,NA,NA,NA,2017-03-24 22:01:19
"121","Monroe St, Spokane, Washington",17,149,"47.69983","-117.42631","http://aqicn.org/city/usa/washington/spokane/monroe-st/","pm25","2017-03-24 09:00:00","-07:00",2.98,93,1012,16,NA,NA,17,NA,NA,NA,NA,NA,NA,2017-03-24 14:08:03,NA,NA,NA,2017-03-24 22:01:19
"122","Alexander Ave, Tacoma, Washington",18,150,"-122.385","47.2656","http://aqicn.org/city/usa/washington/tacoma/alexander-ave/","pm25","2017-03-24 09:00:00","-07:00",8.45,87,1009,NA,NA,NA,18,3.2,19.2,1.6,NA,NA,NA,2017-03-24 14:08:03,NA,NA,NA,2017-03-24 22:01:19
"123"," L Street, Tacoma, Washington",10,151,"47.18631","-122.45154","http://aqicn.org/city/usa/washington/tacoma/l-street/","pm25","2017-03-24 09:00:00","-07:00",7.4,87,1009,NA,NA,NA,10,NA,19.2,0.9,NA,NA,NA,2017-03-24 14:08:03,NA,NA,NA,2017-03-24 22:01:19
"124","Yakama Tribe, Toppenish, Washington",25,152,"46.38024","-120.33266","http://aqicn.org/city/usa/washington/toppenish/yakama-tribe/","pm25","2017-03-24 09:00:00","-07:00",6.4,93,1011,7,NA,NA,25,NA,NA,0.8,NA,NA,NA,2017-03-24 14:08:03,NA,NA,NA,2017-03-24 22:01:19
"125","Tulalip Tribe, Tulalip, Washington",19,153,"48.069","-122.275","http://aqicn.org/city/usa/washington/tulalip/tulalip-tribe/","o3",NA,"2016-12-05 17:00:00",3,93,1017,NA,NA,NA,10,NA,19,NA,NA,NA,NA,2017-03-24 14:08:03,NA,NA,NA,2017-03-24 22:01:19
"126","Glover St, Twisp, Washington",26,154,"48.36451","-120.12113","http://aqicn.org/city/usa/washington/twisp/glover-st/","pm25","2017-03-24 09:00:00","-07:00",3.15,93,1012,NA,NA,NA,26,NA,NA,NA,NA,NA,NA,2017-03-24 14:08:03,NA,NA,NA,2017-03-24 22:01:19
"127","12th St, Walla Walla, Washington",12,156,"-118.35147","46.05881","http://aqicn.org/city/usa/washington/walla-walla/12th-st/","pm25","2017-03-24 09:00:00","-07:00",8.15,93,1012,NA,NA,NA,12,NA,NA,NA,NA,NA,NA,2017-03-24 14:08:03,NA,NA,NA,2017-03-24 22:01:19
"128","Spokane Tribe, Wellpinit, Washington",10,157,"47.88528","-117.98865","http://aqicn.org/city/usa/washington/wellpinit/spokane-tribe/","pm25","2017-03-24 09:00:00","-07:00",3.65,86,1012,16,NA,NA,10,NA,NA,NA,NA,NA,NA,2017-03-24 14:08:03,NA,NA,NA,2017-03-24 22:01:19
"129","Fifth St, Wenatchee, Washington",21,158,"47.43061","-120.34195","http://aqicn.org/city/usa/washington/wenatchee/fifth-st/","pm25","2017-03-24 09:00:00","-07:00",4.2,100,1011,NA,NA,NA,21,NA,NA,1.2,NA,NA,NA,2017-03-24 14:08:03,NA,NA,NA,2017-03-24 22:01:19
"130","Chewuch Rd, Winthrop, Washington",15,159,"48.47724","-120.19057","http://aqicn.org/city/usa/washington/winthrop/chewuch-rd/","pm25","2017-03-24 09:00:00","-07:00",3.15,93,1012,NA,NA,NA,15,NA,NA,NA,NA,NA,NA,2017-03-24 14:08:03,NA,NA,NA,2017-03-24 22:01:19
"131","Yakama Tribe, White Swan, Washington",8,160,"46.37543","-120.72932","http://aqicn.org/city/usa/washington/white-swan/yakama-tribe/","pm25","2017-03-24 09:00:00","-07:00",5.8,93,1011,6,NA,NA,8,NA,NA,1.6,NA,NA,NA,2017-03-24 14:08:03,NA,NA,NA,2017-03-24 22:01:19
"132","Yacolt Rd, Yacolt, Washington",7,161,"45.86639","-122.40889","http://aqicn.org/city/usa/washington/yacolt/yacolt-rd/","pm10","2017-03-24 10:00:00","-07:00",8.33,87,1011,7,1.5,7.7,5,3.9,NA,NA,NA,NA,NA,2017-03-24 14:08:03,NA,NA,NA,2017-03-24 22:01:19
"133","4th Ave, Yakima, Washington",13,162,"46.59495","-120.51228","http://aqicn.org/city/usa/washington/yakima/4th-ave/","pm25","2017-03-24 09:00:00","-07:00",4.10333333333333,86,1010,6,NA,NA,13,NA,NA,NA,NA,NA,NA,2017-03-24 14:08:03,NA,NA,NA,2017-03-24 22:01:19
"134","Baytown, Houston, Texas",39,177,"29.7706975","-95.0312316","http://aqicn.org/city/texas/houston/baytown/","pm25","2017-03-24 11:00:00","-06:00",23.2222,65,1018,1,0.2,0.1,39,1.2,31.2,14,NA,147,NA,2017-03-24 14:08:03,NA,NA,NA,2017-03-24 22:01:19
"135","Park Place, Houston, Texas",38,178,"-95.294722","29.686389","http://aqicn.org/city/texas/houston/park-place/","pm25","2017-03-24 11:00:00","-06:00",23.8333,67.8,1016.7,NA,0.5,3.9,38,2.3,29.6,12.7,NA,161,NA,2017-03-24 14:08:03,NA,NA,NA,2017-03-24 22:01:19
"136","Seabrook Friendship Park, Houston, Texas",38,179,"29.5830473","-95.0155437","http://aqicn.org/city/texas/houston/seabrook-friendship-park/","pm25","2017-03-24 11:00:00","-06:00",24.4,65,1018,1,0.9,0.8,38,1.2,32,12.4,NA,159,NA,2017-03-24 14:08:03,NA,NA,NA,2017-03-24 22:01:19
"137","Conroe Relocated, Houston, Texas",38,180,"30.3503017","-95.4251278","http://aqicn.org/city/texas/houston/conroe-relocated/","pm25","2017-03-24 11:00:00","-06:00",24,65,1018,NA,NA,3.5,38,NA,35.2,14.3,NA,163,NA,2017-03-24 14:08:03,NA,NA,NA,2017-03-24 22:01:19
"138","Houston East, Houston, Texas",59,181,"-95.2205867","29.7679707","http://aqicn.org/city/texas/houston/houston-east/","pm25","2017-03-24 11:00:00","-06:00",24,65,1018,NA,0.2,4.5,59,2.3,32,10.3,NA,169,NA,2017-03-24 14:08:03,NA,NA,NA,2017-03-24 22:01:19
"139","Italy, fort Worth, Dallas, Texas",38,182,"32.1754284","-96.8701803","http://aqicn.org/city/texas/dallas/fort-worth/italy/","o3","2017-03-24 11:00:00","-06:00",12.9,80.6,1013,NA,0.3,0.6,30,NA,37.6,10,NA,259,NA,2017-03-24 14:08:03,NA,NA,NA,2017-03-24 22:01:19
"140","Kaufman, fort Worth, Dallas, Texas",41,183,"32.5649518","-96.3176773","http://aqicn.org/city/texas/dallas/fort-worth/kaufman/","pm25","2017-03-24 11:00:00","-06:00",20.6111,74.9,1014,NA,2.2,0.3,41,NA,28.1,11.7,NA,158,NA,2017-03-24 14:08:03,NA,NA,NA,2017-03-24 22:01:19
"141","Arlington Municipal Airport, fort Worth, Dallas, Texas",34,184,"32.6563574","-97.0885849","http://aqicn.org/city/texas/dallas/fort-worth/arlington-municipal-airport/","o3","2017-03-24 11:00:00","-06:00",13.8333,93,1013,16,0.3,2.8,8,NA,34.4,6.7,NA,219,NA,2017-03-24 14:08:03,NA,NA,NA,2017-03-24 22:01:19
"142","Haws Athletic Center, fort Worth, Dallas, Texas",34,185,"32.7591432","-97.3423337","http://aqicn.org/city/texas/dallas/fort-worth/haws-athletic-center/","o3","2017-03-24 11:00:00","-06:00",15.61,93,1013,16,0.3,2.8,12,NA,34.4,NA,NA,NA,NA,2017-03-24 14:08:03,NA,NA,NA,2017-03-24 22:01:19
"143","CPS Pecan Valley, San Antonio, Texas",60,186,"-98.431251","29.4072945","http://aqicn.org/city/texas/san-antonio/cps-pecan-valley/","pm25","2017-03-24 11:00:00","-06:00",21.1667,79.6666666666667,1015,NA,1.6,2.5,60,NA,17.6,3.7,NA,166,NA,2017-03-24 14:08:03,NA,NA,NA,2017-03-24 22:01:19
"144","Calaveras Lake, San Antonio, Texas",63,187,"29.2753812","-98.3116919","http://aqicn.org/city/texas/san-antonio/calaveras-lake/","pm25","2017-03-24 11:00:00","-06:00",22.3889,79.6666666666667,1015,NA,2.2,1.8,63,NA,26.4,10.1,NA,159,NA,2017-03-24 14:08:03,NA,NA,NA,2017-03-24 22:01:19
"145","Heritage Middle School, San Antonio, Texas",61,188,"29.3529047","-98.3328207","http://aqicn.org/city/texas/san-antonio/heritage-middle-school/","pm25","2017-03-24 11:00:00","-06:00",22.4444,79.6666666666667,1015,NA,2.2,1.8,61,NA,27.2,11.5,NA,185,NA,2017-03-24 14:08:03,NA,NA,NA,2017-03-24 22:01:19
"146","Old Hwy 90, San Antonio, Texas",59,189,"-98.5805051","29.4239327","http://aqicn.org/city/texas/san-antonio/old-hwy-90/","pm25","2017-03-24 11:00:00","-06:00",22.4,78,1015,NA,2.2,6.1,59,NA,11.2,5,NA,157,NA,2017-03-24 14:08:03,NA,NA,NA,2017-03-24 22:01:19
"147","Palo Alto, San Antonio, Texas",55,190,"29.3328029","-98.5513964","http://aqicn.org/city/texas/san-antonio/palo-alto/","pm25","2017-03-24 10:00:00","-06:00",21.1667,78,1015,NA,2.2,6.1,55,NA,11.2,4.6,NA,148,NA,2017-03-24 14:08:03,NA,NA,NA,2017-03-24 22:01:19
"148","San Antonio Northwest, San Antonio, Texas",60,191,"29.51509","-98.620166","http://aqicn.org/city/texas/san-antonio/san-antonio-northwest/","pm25","2017-03-24 11:00:00","-06:00",20.7222,88,1015.5,NA,2.2,1.1,60,NA,15.2,4.7,NA,187,NA,2017-03-24 14:08:03,NA,NA,NA,2017-03-24 22:01:19
"149","Selma, San Antonio, Texas",61,192,"29.5877306","-98.3124785","http://aqicn.org/city/texas/san-antonio/selma/","pm25","2017-03-24 11:00:00","-06:00",19.26,88,1015,NA,1.6,3.2,61,NA,17.6,NA,NA,NA,NA,2017-03-24 14:08:03,NA,NA,NA,2017-03-24 22:01:19
"150","Socorro Hueco, El Paso, Texas",61,193,"31.6675","-106.288","http://aqicn.org/city/texas/el-paso/socorro-hueco/","pm25","2017-03-24 10:00:00","-06:00",14.3,26,1020,55,0.5,1.1,61,2.3,32.8,NA,NA,NA,NA,2017-03-24 14:08:03,NA,NA,NA,2017-03-24 22:01:19
"151","National Seashore, Corpus Christi, Texas",66,194,"27.4269883","-97.2987037","http://aqicn.org/city/texas/corpus-christi/national-seashore/","pm25","2017-03-24 11:00:00","-06:00",22.6111,74,1015,NA,0.2,NA,66,NA,NA,15.2,NA,161,NA,2017-03-24 14:08:03,NA,NA,NA,2017-03-24 22:01:19
"152","Beaumont Mary, Beaumont, Texas",NA,195,"30.06717","-94.09093","http://aqicn.org/city/texas/beaumont/beaumont-mary/","","2016-10-30 01:00:00","-0600",22.07,100,1035.88,NA,NA,NA,16,NA,NA,NA,NA,NA,NA,2017-03-24 14:08:03,NA,NA,NA,2017-03-24 22:01:19
"153","Odessa Gonzales, Midland, Texas",55,196,"31.8702534","-102.3347563","http://aqicn.org/city/texas/midland/odessa-gonzales/","pm25","2017-03-24 11:00:00","-06:00",17.5,26.3333333333333,1013.33333333333,NA,NA,NA,55,NA,NA,17.7,NA,258,NA,2017-03-24 14:08:03,NA,NA,NA,2017-03-24 22:01:19
"154","Galveston 99th Street, Houston, Texas",53,197,"29.2544736","-94.8612886","http://aqicn.org/city/texas/houston/galveston-99th-street/","pm25","2017-03-24 11:00:00","-06:00",23.2,76.9,1016.5,1,0.9,0.7,53,1.2,32.8,14,NA,144,NA,2017-03-24 14:08:03,NA,NA,NA,2017-03-24 22:01:19
"155","Waco Mazanec, Waco, Texas",25,198,"-97.0706982","31.6530743","http://aqicn.org/city/texas/waco/waco-mazanec/","o3","2017-03-24 11:00:00","-06:00",16.5556,82,1013,NA,0.3,3.2,20,2.3,24.8,11.8,NA,178,NA,2017-03-24 14:08:03,NA,NA,NA,2017-03-24 22:01:19
"156","World Trade Bridge, Laredo, Texas",53,199,"27.599444","-99.533333","http://aqicn.org/city/texas/laredo/world-trade-bridge/","pm25","2017-03-24 11:00:00","-06:00",23.57,64,1015,NA,NA,NA,53,NA,NA,NA,NA,NA,NA,2017-03-24 14:08:03,NA,NA,NA,2017-03-24 22:01:19
"157","Amarillo A&amp;M, Amarillo, Texas",38,200,"35.2015839","-101.9092481","http://aqicn.org/city/texas/amarillo/amarillo-a-m/","pm25","2017-03-24 11:00:00","-06:00",9.16,81,999,NA,NA,NA,38,NA,NA,NA,NA,NA,NA,2017-03-24 14:08:03,NA,NA,NA,2017-03-24 22:01:19
"158","Clinton, Houston, Texas",59,201,"29.7337263","-95.2575931","http://aqicn.org/city/texas/houston/clinton/","pm25","2017-03-24 11:00:00","-06:00",23.6667,67.2,1017.6,NA,0.2,7.3,59,2.3,27.2,17.1,NA,162,NA,2017-03-24 14:08:03,NA,NA,NA,2017-03-24 22:01:19
"159","Houston Deer Park #2, Houston, Texas",39,202,"-95.1285077","29.670025","http://aqicn.org/city/texas/houston/houston-deer-park--2/","pm25","2017-03-24 11:00:00","-06:00",24.2778,65.5,1018,1,0.2,0.1,39,1.2,31.2,12.5,NA,150,NA,2017-03-24 14:08:03,NA,NA,NA,2017-03-24 22:01:19
"160","Houston Aldine, Houston, Texas",34,203,"-95.3261248","29.901037","http://aqicn.org/city/texas/houston/houston-aldine/","o3","2017-03-24 11:00:00","-06:00",23.7778,62.8,1017.4,NA,0.2,4.3,24,2.3,33.6,12.6,NA,136,NA,2017-03-24 14:08:03,NA,NA,NA,2017-03-24 22:01:19
"161","Dallas Hinton, fort Worth, Dallas, Texas",28,204,"32.8200608","-96.8601165","http://aqicn.org/city/texas/dallas/fort-worth/dallas-hinton/","o3","2017-03-24 11:00:00","-06:00",14.7778,88.5,1013,16,0.3,10.1,8,1.2,28.1,6.7,NA,253,NA,2017-03-24 14:08:03,NA,NA,NA,2017-03-24 22:01:19
"162","Denton Airport South, fort Worth, Dallas, Texas",32,205,"33.2190564","-97.1962872","http://aqicn.org/city/texas/dallas/fort-worth/denton-airport-south/","o3","2017-03-24 11:00:00","-06:00",15.9,80.6,1013,NA,NA,3,12,NA,32,11,0.01,160,NA,2017-03-24 14:08:03,NA,NA,NA,2017-03-24 22:01:19
"163","Midlothian OFW, fort Worth, Dallas, Texas",38,206,"32.4820815","-97.0269224","http://aqicn.org/city/texas/dallas/fort-worth/midlothian-ofw/","o3","2017-03-24 11:00:00","-06:00",12.1,82,1013,6,0.3,7.2,30,NA,37.6,10.7,NA,182,NA,2017-03-24 14:08:03,NA,NA,NA,2017-03-24 22:01:19
"164","Ascarate Park SE, El Paso, Texas",32,207,"31.7467425","-106.4027843","http://aqicn.org/city/texas/el-paso/ascarate-park-se/","o3","2017-03-24 10:00:00","-06:00",14.1,29.7,892.1,36,0.5,1.1,34,2.3,32,NA,NA,NA,NA,2017-03-24 14:08:03,NA,NA,NA,2017-03-24 22:01:19
"165","El Paso Chamizal, El Paso, Texas",139,208,"31.7656976","-106.4552204","http://aqicn.org/city/texas/el-paso/el-paso-chamizal/","pm25","2017-03-24 09:00:00","-06:00",14.4,26.8,1020,67,0.6,1.2,139,2.3,35.2,NA,NA,NA,NA,2017-03-24 14:08:03,NA,NA,NA,2017-03-24 22:01:19
"166","El Paso UTEP, El Paso, Texas",35,209,"31.7682914","-106.5012595","http://aqicn.org/city/texas/el-paso/el-paso-utep/","o3","2017-03-24 10:00:00","-06:00",13.8,27.2,1020,24,0.6,1.2,35,2.3,35.2,NA,NA,NA,NA,2017-03-24 14:08:03,NA,NA,NA,2017-03-24 22:01:19
"167","Mission, Harlingen, Texas",92,210,"-98.291069","26.2262097","http://aqicn.org/city/texas/harlingen/mission/","pm25","2017-03-24 11:00:00","-06:00",26.5556,58,1014,NA,NA,NA,92,NA,28.1,11.4,NA,169,NA,2017-03-24 14:08:03,NA,NA,NA,2017-03-24 22:01:19
"168","Dona Park, Corpus Christi, Texas",60,211,"27.8118142","-97.4657005","http://aqicn.org/city/texas/corpus-christi/dona-park/","pm25","2017-03-24 11:00:00","-06:00",25.5,74,1015,NA,0.2,NA,60,NA,NA,13.3,NA,164,NA,2017-03-24 14:08:03,NA,NA,NA,2017-03-24 22:01:19
"169","Hamshire, Beaumont, Texas",38,212,"29.8639525","-94.3177999","http://aqicn.org/city/texas/beaumont/hamshire/","pm25","2017-03-24 11:00:00","-06:00",22.9444,73,1020,NA,NA,0.1,38,NA,31.2,14,NA,151,NA,2017-03-24 14:08:03,NA,NA,NA,2017-03-24 22:01:19
"170","SETRPC 42 Mauriceville, Beaumont, Texas",43,213,"30.1946263","-93.8672095","http://aqicn.org/city/texas/beaumont/setrpc-42-mauriceville/","pm25","2017-03-24 11:00:00","-06:00",23.76,69,1020,NA,NA,NA,43,NA,NA,NA,NA,NA,NA,2017-03-24 14:08:03,NA,NA,NA,2017-03-24 22:01:19
"171","Brownsville, Harlingen, Texas",31,214,"25.8925176","-97.4938295","http://aqicn.org/city/texas/harlingen/brownsville/","o3","2017-03-24 11:00:00","-06:00",26.0556,69,1014,NA,NA,NA,NA,4.5,31.2,16.8,NA,177,NA,2017-03-24 14:08:03,NA,NA,NA,2017-03-24 22:01:19
"172","Odessa-Hays Elementary School, Midland, Texas",54,215,"31.8365747","-102.3420368","http://aqicn.org/city/texas/midland/odessa-hays-elementary-school/","pm25","2017-03-24 11:00:00","-06:00",15.7778,26.3333333333333,1013.33333333333,NA,NA,NA,54,NA,NA,24.9,NA,258,NA,2017-03-24 14:08:03,NA,NA,NA,2017-03-24 22:01:19
"173","Austin Audubon Society, Austin, Texas",48,217,"30.4831681","-97.8723005","http://aqicn.org/city/texas/austin/austin-audubon-society/","pm25","2017-03-24 11:00:00","-06:00",20.3333,88,1015,NA,0.2,5.7,48,NA,22.4,7.9,NA,179,NA,2017-03-24 14:08:03,NA,NA,NA,2017-03-24 22:01:19
"174","Austin Northwest, Austin, Texas",52,218,"30.3544356","-97.7602554","http://aqicn.org/city/texas/austin/austin-northwest/","pm25","2017-03-24 11:00:00","-06:00",25.2778,88,1015,NA,0.2,5.7,52,NA,17.6,5.2,NA,192,NA,2017-03-24 14:08:03,NA,NA,NA,2017-03-24 22:01:19
"175","Port Arthur Memorial School, Beaumont, Texas",38,219,"-93.9090282","29.9229186","http://aqicn.org/city/texas/beaumont/port-arthur-memorial-school/","pm25","2017-03-24 11:00:00","-06:00",23.76,69,1020,NA,NA,NA,38,NA,NA,NA,NA,NA,NA,2017-03-24 14:08:03,NA,NA,NA,2017-03-24 22:01:19
"176","Isla Blanca Park, Harlingen, Texas",31,220,"26.0696153","-97.1621996","http://aqicn.org/city/texas/harlingen/isla-blanca-park/","o3","2017-03-24 11:00:00","-06:00",24.1111,69,1014,NA,NA,NA,NA,4.5,31.2,10.3,NA,148,NA,2017-03-24 14:08:03,NA,NA,NA,2017-03-24 22:01:19
"177","Karnack, Tyler, Texas",33,221,"32.6689873","-94.1674569","http://aqicn.org/city/texas/tyler/karnack/","pm25","2017-03-24 11:00:00","-06:00",21.8333,73,1018,17,1.5,0.3,33,NA,32.8,8.8,NA,158,NA,2017-03-24 14:08:03,NA,NA,NA,2017-03-24 22:01:19
"178","Wichita Falls, Abilene, Texas",NA,222,"33.8630221","-98.5717882","http://aqicn.org/city/texas/abilene/wichita-falls/","","","-0600",22.49,50,993.16,NA,NA,NA,NA,NA,NA,NA,NA,NA,NA,2017-03-24 14:08:03,NA,NA,NA,2017-03-24 22:01:19
"179","Eagle Pass, Laredo, Texas",74,223,"28.704607","-100.4511555","http://aqicn.org/city/texas/laredo/eagle-pass/","pm10","2017-03-24 10:00:00","-06:00",23.4444,57,989.4,74,3.5,3.7,53,4,0.1,7.1,NA,31,NA,2017-03-24 14:08:03,NA,NA,NA,2017-03-24 22:01:19
"180","Austin Webberville Rd, Austin, Texas",52,224,"-97.7128831","30.2632079","http://aqicn.org/city/texas/austin/austin-webberville-rd/","pm25","2017-03-24 11:00:00","-06:00",19.6111,88,1015,NA,1,1.6,52,NA,24.8,3.1,NA,164,NA,2017-03-24 14:08:03,NA,NA,NA,2017-03-24 22:01:19
"181","Lubbock-PM25, Lubbock, Texas",NA,225,"33.590764","-101.8504185","http://aqicn.org/city/texas/lubbock/lubbock-pm25/","","","-0600",16.74,45,NA,NA,NA,NA,NA,NA,NA,NA,NA,NA,NA,2017-03-24 14:08:03,NA,NA,NA,2017-03-24 22:01:19
"182","Corsicana Airport, fort Worth, Dallas, Texas",36,226,"32.0319398","-96.3991377","http://aqicn.org/city/texas/dallas/fort-worth/corsicana-airport/","pm25","2017-03-24 11:00:00","-06:00",21.5,70.4,1014,NA,1.3,1.3,36,NA,31.2,21.6,NA,160,NA,2017-03-24 14:08:03,NA,NA,NA,2017-03-24 22:01:19
"183","Zavala Elementary, Austin, Texas",52,227,"30.2583319","-97.7203007","http://aqicn.org/city/texas/austin/zavala-elementary/","pm25","2017-03-24 11:00:00","-06:00",19.9444,88,1015,NA,1,1.6,52,NA,24.8,1.9,NA,165,NA,2017-03-24 14:08:03,NA,NA,NA,2017-03-24 22:01:19
"184","Fayette County, Austin, Texas",51,228,"29.9624745","-96.7458748","http://aqicn.org/city/texas/austin/fayette-county/","pm25","2017-03-24 11:00:00","-06:00",22.3333,78,1015,NA,NA,NA,51,NA,29.6,13.7,NA,154,NA,2017-03-24 14:08:03,NA,NA,NA,2017-03-24 22:01:19
"185","San Andreas-Gold Strike Road, Calaveras, California",46,229,"38.20185","-120.68028","http://aqicn.org/city/california/calaveras/san-andreas-gold-strike-road/","pm25","2017-03-24 10:00:00","-07:00",10.5,92.8,1020,15,NA,NA,46,NA,21.8,NA,NA,NA,NA,2017-03-24 14:08:03,NA,NA,NA,2017-03-24 22:01:19
"186","Yosemite Village - Visitor Center, Mariposa, California",65,230,"37.74871","-119.58709","http://aqicn.org/city/california/mariposa/yosemite-village-visitor-center/","pm25","2017-03-24 09:00:00","-07:00",5.28,100,1023,11,NA,NA,65,NA,NA,NA,NA,NA,NA,2017-03-24 14:08:03,NA,NA,NA,2017-03-24 22:01:19
"187","Grass Valley-Litton Building, Nevada, California",46,231,"39.23352","-121.05567","http://aqicn.org/city/california/nevada/grass-valley-litton-building/","o3","2017-03-24 09:00:00","-07:00",9.81,93,1021,NA,NA,5.6,13,NA,46.4,NA,NA,NA,NA,2017-03-24 14:08:03,NA,NA,NA,2017-03-24 22:01:19
"188","Truckee - Fire Station, Nevada, California",9,232,"39.32782","-120.18459","http://aqicn.org/city/california/nevada/truckee-fire-station/","pm25","2017-03-24 10:00:00","-07:00",4.82,87,1018,NA,NA,NA,9,NA,41.6,1.3,NA,NA,NA,2017-03-24 14:08:03,NA,NA,NA,2017-03-24 22:01:19
"189","Colfax-City Hall, Placer, California",33,233,"39.09979","-120.95391","http://aqicn.org/city/california/placer/colfax-city-hall/","o3","2017-03-24 09:00:00","-07:00",9.81,93,1021,NA,NA,5.6,21,NA,32.8,NA,NA,NA,NA,2017-03-24 14:08:03,NA,NA,NA,2017-03-24 22:01:19
"190","Chester, Plumas, California",38,234,"-121.22779","40.30961","http://aqicn.org/city/california/plumas/chester/","pm25","2017-03-24 09:00:00","-07:00",1.34,94,NA,NA,NA,NA,38,NA,NA,1.4,NA,NA,NA,2017-03-24 14:08:03,NA,NA,NA,2017-03-24 22:01:19
"191","Portola - Nevada Street, Plumas, California",NA,235,"39.80587","-120.46866","http://aqicn.org/city/california/plumas/portola-nevada-street/","","","-0700",17.66,36,1021,NA,NA,NA,NA,NA,NA,NA,NA,NA,NA,2017-03-24 14:08:03,NA,NA,NA,2017-03-24 22:01:19
"192","Quincy-N Church Street, Plumas, California",17,236,"-120.94438","39.93957","http://aqicn.org/city/california/plumas/quincy-n-church-street/","pm25","2017-03-24 09:00:00","-07:00",1.34,94,NA,NA,NA,NA,17,NA,NA,0.9,NA,NA,NA,2017-03-24 14:08:03,NA,NA,NA,2017-03-24 22:01:19
"193","Mojave, Kern, California",35,237,"35.05045","-118.14778","http://aqicn.org/city/california/kern/mojave/","o3","2017-03-24 09:00:00","-07:00",11.25,27,1025,10,NA,NA,13,NA,35.2,NA,NA,NA,NA,2017-03-24 14:08:03,NA,NA,NA,2017-03-24 22:01:19
"194","Carmel Valley-Ford Road, Monterey, California",8,238,"36.48187","-121.73333","http://aqicn.org/city/california/monterey/carmel-valley-ford-road/","o3","2017-03-24 09:00:00","-07:00",10,87,1023,NA,NA,3.8,5,2.3,8,0.7,NA,NA,NA,2017-03-24 14:08:03,NA,NA,NA,2017-03-24 22:01:19
"195","King City - Pearl, Monterey, California",16,239,"36.20902","-121.12596","http://aqicn.org/city/california/monterey/king-city-pearl/","o3","2017-03-24 09:00:00","-07:00",9.1,81,1023,10,NA,NA,9,NA,16,3.2,NA,NA,NA,2017-03-24 14:08:03,NA,NA,NA,2017-03-24 22:01:19
"196","Santa Cruz - Soquel Avenue, Santa Cruz, California",21,240,"36.98401","-121.99097","http://aqicn.org/city/california/santa-cruz/santa-cruz-soquel-avenue/","o3","2017-03-24 09:00:00","-07:00",11.1,87,1023,NA,0.2,6.5,9,2,20.8,2.4,NA,NA,NA,2017-03-24 14:08:03,NA,NA,NA,2017-03-24 22:01:19
"197","Burbank, Los Angeles",NA,241,"34.17599","-118.31701","http://aqicn.org/city/losangeles/burbank/","","","-0700",21.9,78,1011,NA,NA,NA,NA,NA,NA,2.6,NA,NA,NA,2017-03-24 14:08:03,NA,NA,NA,2017-03-24 22:01:19
"198","Glendora-Laurel, Los Angeles",25,242,"34.14437","-117.85038","http://aqicn.org/city/losangeles/glendora-laurel/","pm25","2017-03-24 10:00:00","-07:00",12.7,60.8,1024,16,1.5,0.8,25,1.2,2.4,1.15,11.63,NA,NA,2017-03-24 14:08:03,NA,NA,NA,2017-03-24 22:01:19
"199","Los Angeles-North Main Street",38,243,"34.06653","-118.22676","http://aqicn.org/city/losangeles/los-angeles-north-main-street/","pm25","2017-03-24 10:00:00","-07:00",12.8,66.8,1024,32,1.5,1.6,38,5.6,2,1.15,11.63,NA,NA,2017-03-24 14:08:03,NA,NA,NA,2017-03-24 22:01:19
"200","North Long Beach (Long Beach), Los Angeles",NA,244,"33.82376","-118.18916","http://aqicn.org/city/losangeles/north-long-beach-long-beach/","","2016-09-02 10:00:00","-0700",26.83,64,1011,NA,NA,NA,46,NA,NA,5.7,NA,NA,NA,2017-03-24 14:08:03,NA,NA,NA,2017-03-24 22:01:19
"201","Reseda, Los Angeles",82,245,"34.1992","-118.53275","http://aqicn.org/city/losangeles/reseda/","pm25","2017-03-24 10:00:00","-07:00",15.65,59,1024,18,1.5,1.4,82,1.2,2.1,1.5,11.63,NA,NA,2017-03-24 14:08:03,NA,NA,NA,2017-03-24 22:01:19
"202","Santa Clarita-Placerita, Los Angeles",34,246,"34.38337","-118.52839","http://aqicn.org/city/losangeles/santa-clarita-placerita/","pm25","2017-03-24 10:00:00","-07:00",10.7,66.9,1024,18,1.5,1,34,2.3,2,1.5,11.63,NA,NA,2017-03-24 14:08:03,NA,NA,NA,2017-03-24 22:01:19
"203","South Long Beach, Los Angeles, California",54,247,"33.7924","-118.17525","http://aqicn.org/city/california/los-angeles/south-long-beach/","pm25","2017-03-24 09:00:00","-07:00",13.8,57.9,1024,16,1.5,18.9,54,7.3,10.8,NA,NA,NA,NA,2017-03-24 14:08:03,NA,NA,NA,2017-03-24 22:01:19
"204","Banning-Airport, Riverside",34,248,"-116.85841","33.92077","http://aqicn.org/city/california/riverside/banning-airport/","pm25","2017-03-24 10:00:00","-07:00",11.4,56.9,1024,NA,NA,0.5,34,NA,3.5,0.8,NA,NA,NA,2017-03-24 14:08:03,NA,NA,NA,2017-03-24 22:01:19
"205","Lake Elsinore-W Flint Street, Riverside",34,249,"33.67653","-117.33104","http://aqicn.org/city/california/riverside/lake-elsinore-w-flint-street/","pm25","2017-03-24 09:00:00","-07:00",7.3,85.9,1024,18,1.5,1.3,34,3.4,1.2,0.8,NA,NA,NA,2017-03-24 14:08:03,NA,NA,NA,2017-03-24 22:01:19
"206","Mira Loma-Van Buren, Riverside, California",47,250,"-117.4924","33.99636","http://aqicn.org/city/california/riverside/mira-loma-van-buren/","pm10","2017-03-24 08:00:00","-07:00",11.7,68.1,1024,47,1.5,26.9,41,7.1,3.4,NA,NA,NA,NA,2017-03-24 14:08:03,NA,NA,NA,2017-03-24 22:01:19
"207","Riverside-Magnolia, Riverside",NA,251,"-117.40056","33.94586","http://aqicn.org/city/california/riverside/riverside-magnolia/","","2016-09-07 06:00:00","-0700",28.22,48,1013,54,NA,22.3,53,8.9,1,3.6,NA,NA,NA,2017-03-24 14:08:03,NA,NA,NA,2017-03-24 22:01:19
"208","Rubidoux - Mission Blvd, Riverside",52,252,"33.99952","-117.41595","http://aqicn.org/city/california/riverside/rubidoux-mission-blvd/","pm10","2017-03-24 10:00:00","-07:00",11.6,66.7,1025,52,1.5,2.5,46,4.5,0.2,1.5,NA,NA,NA,2017-03-24 14:08:03,NA,NA,NA,2017-03-24 22:01:19
"209","Temecula - Lake Skinner, Riverside, California",44,253,"33.58333","-117.08333","http://aqicn.org/city/california/riverside/temecula-lake-skinner/","pm25","2017-03-24 09:00:00","-07:00",8.4,84.8,1024,18,NA,1.3,44,3.4,23.6,NA,NA,NA,NA,2017-03-24 14:08:03,NA,NA,NA,2017-03-24 22:01:19
"210","Lake Gregory (Crestline), San Bernardino",52,254,"34.24313","-117.2723","http://aqicn.org/city/california/san-bernardino/lake-gregory-crestline/","pm10","2017-03-24 10:00:00","-07:00",7.1,65,1023,52,1.5,2.5,21,4.5,3.8,1.32,NA,NA,NA,2017-03-24 14:08:03,NA,NA,NA,2017-03-24 22:01:19
"211","Upland, San Bernardino",74,255,"34.10367","-117.62906","http://aqicn.org/city/california/san-bernardino/upland/","pm25","2017-03-24 10:00:00","-07:00",13.09,37,1023,23,1.5,1.6,74,4.5,2.2,1.32,NA,NA,NA,2017-03-24 14:08:03,NA,NA,NA,2017-03-24 22:01:19
"212","CDF - Arroyo Grande, San Luis Obispo, California",30,256,"35.04676","-120.58777","http://aqicn.org/city/california/san-luis-obispo/cdf-arroyo-grande/","pm25","2017-03-24 09:00:00","-07:00",9.76,87,1025,13,NA,5.6,30,2.1,23.3,NA,NA,NA,NA,2017-03-24 14:08:03,NA,NA,NA,2017-03-24 22:01:19
"213","Atascadero-Lewis Avenue, San Luis Obispo, California",NA,257,"35.49153","-120.66799","http://aqicn.org/city/california/san-luis-obispo/atascadero-lewis-avenue/","","","-0700",14.66,100,1014,NA,NA,NA,NA,NA,NA,NA,NA,NA,NA,2017-03-24 14:08:03,NA,NA,NA,2017-03-24 22:01:19
"214","Nipomo-Guadalupe Road, San Luis Obispo, California",34,258,"-120.56389","35.02079","http://aqicn.org/city/california/san-luis-obispo/nipomo-guadalupe-road/","pm25","2017-03-24 09:00:00","-07:00",11,87,1025,21,NA,5.6,34,2.1,23.3,NA,NA,NA,NA,2017-03-24 14:08:03,NA,NA,NA,2017-03-24 22:01:19
"215","San Luis Obispo-Higuera Street, San Luis Obispo, California",61,259,"35.25651","-120.6693","http://aqicn.org/city/california/san-luis-obispo/san-luis-obispo-higuera-street/","pm25","2017-03-24 09:00:00","-07:00",11.9,74.4,1025,20,NA,5.6,61,2.1,20.2,NA,NA,NA,NA,2017-03-24 14:08:03,NA,NA,NA,2017-03-24 22:01:19
"216","Goleta-Fairview, Santa Barbara, California",34,260,"34.44551","-119.82845","http://aqicn.org/city/california/santa-barbara/goleta-fairview/","pm25","2017-03-24 08:00:00","-07:00",8.67,81,1024,11,NA,7.5,34,3.4,18.4,NA,NA,NA,NA,2017-03-24 14:08:03,NA,NA,NA,2017-03-24 22:01:19
"217","Lompoc-South H Street, Santa Barbara, California",25,261,"34.63782","-120.4575","http://aqicn.org/city/california/santa-barbara/lompoc-south-h-street/","pm25","2017-03-24 09:00:00","-07:00",9.76,87,1025,19,1.5,2.8,25,3.4,12.8,NA,NA,NA,NA,2017-03-24 14:08:03,NA,NA,NA,2017-03-24 22:01:19
"218","Santa Barbara-National Guard Armory, Santa Barbara, California",34,262,"34.42775","-119.69091","http://aqicn.org/city/california/santa-barbara/santa-barbara-national-guard-armory/","pm25","2017-03-24 08:00:00","-07:00",14.3,70.8,1024,11,NA,13.9,34,4.9,12.8,NA,NA,NA,NA,2017-03-24 14:08:03,NA,NA,NA,2017-03-24 22:01:19
"219","Santa Maria - South Broadway, Santa Barbara, California",17,263,"34.94287","-120.43561","http://aqicn.org/city/california/santa-barbara/santa-maria-south-broadway/","pm25","2017-03-24 09:00:00","-07:00",12.4,65.3,1024,13,NA,5.6,17,1.7,23.3,NA,NA,NA,NA,2017-03-24 14:08:03,NA,NA,NA,2017-03-24 22:01:19
"220","El Rio-Rio Mesa School #2, Ventura, California",53,264,"34.25238","-119.14318","http://aqicn.org/city/california/ventura/el-rio-rio-mesa-school--2/","pm25","2017-03-24 09:00:00","-07:00",13.3,61,1024.5,30,NA,2,53,3.4,16,2.4,NA,NA,NA,2017-03-24 14:08:03,NA,NA,NA,2017-03-24 22:01:19
"221","Ojai - East Ojai Av, Ventura, California",30,265,"-119.23131","34.44804","http://aqicn.org/city/california/ventura/ojai-east-ojai-av/","pm10","2017-03-24 09:00:00","-07:00",13.9,54,1024.5,30,NA,5.6,17,2.2,22.4,1,NA,NA,NA,2017-03-24 14:08:03,NA,NA,NA,2017-03-24 22:01:19
"222","Piru - Pacific, Ventura, California",21,266,"34.40426","-118.80991","http://aqicn.org/city/california/ventura/piru-pacific/","pm25","2017-03-24 09:00:00","-07:00",12.4,54,1024.5,18,NA,2,21,3.4,18.4,3.3,NA,NA,NA,2017-03-24 14:08:03,NA,NA,NA,2017-03-24 22:01:19
"223","Simi Valley - Cochran Street, Ventura, California",27,267,"34.2764","-118.68375","http://aqicn.org/city/california/ventura/simi-valley-cochran-street/","o3","2017-03-24 09:00:00","-07:00",15.4,51,1024.5,18,NA,2,25,3.4,27.2,1,NA,NA,NA,2017-03-24 14:08:03,NA,NA,NA,2017-03-24 22:01:19
"224","Alpine-Victoria Drive, San Diego, California",30,268,"-116.76784","32.84231","http://aqicn.org/city/california/san-diego/alpine-victoria-drive/","o3","2017-03-24 09:00:00","-07:00",11.29,62,1025,NA,NA,5.6,16,NA,30.4,NA,NA,NA,NA,2017-03-24 14:08:03,NA,NA,NA,2017-03-24 22:01:19
"225","Camp Pendleton, San Diego, California",23,269,"-117.39616","33.21701","http://aqicn.org/city/california/san-diego/camp-pendleton/","o3","2017-03-24 09:00:00","-07:00",11.29,62,1025,NA,NA,15.8,23,NA,23.3,NA,NA,NA,NA,2017-03-24 14:08:03,NA,NA,NA,2017-03-24 22:01:19
"226","El Cajon-Redwood Avenue, San Diego, California",20,270,"32.7912","-116.9421","http://aqicn.org/city/california/san-diego/el-cajon-redwood-avenue/","pm25","2017-03-24 09:00:00","-07:00",11.29,62,1025,NA,NA,5.6,20,NA,14.5,NA,NA,NA,NA,2017-03-24 14:08:03,NA,NA,NA,2017-03-24 22:01:19
"227","Escondido-E Valley Parkway, San Diego, California",NA,271,"33.12772","-117.07536","http://aqicn.org/city/california/san-diego/escondido-e-valley-parkway/","","","-07:00",21.96,88,1012,NA,NA,NA,NA,NA,NA,NA,NA,NA,NA,2017-03-24 14:08:03,NA,NA,NA,2017-03-24 22:01:19
"228","San Diego - Beardsley, San Diego, California",NA,272,"32.70148","-117.14962","http://aqicn.org/city/california/san-diego/san-diego-beardsley/","","2016-10-20 09:00:00","-07:00",25.21,15,NA,NA,NA,15.8,67,4.5,12.8,NA,NA,NA,NA,2017-03-24 14:08:03,NA,NA,NA,2017-03-24 22:01:19
"229","Point Reyes, Marin, California",NA,273,"-122.90836","38.12275","http://aqicn.org/city/california/marin/point-reyes/","","","-0700",19.2,69,1014,NA,NA,NA,NA,NA,NA,NA,NA,NA,NA,2017-03-24 14:08:03,NA,NA,NA,2017-03-24 22:01:19
"230","Clovis-N Villa Avenue, Fresno, California",56,274,"36.81931","-119.71639","http://aqicn.org/city/california/fresno/clovis-n-villa-avenue/","pm10","2017-03-24 07:00:00","-07:00",12.15,76,1024,56,0.3,7.5,25,3.5,22,NA,NA,NA,NA,2017-03-24 14:08:03,NA,NA,NA,2017-03-24 22:01:19
"231","Fresno - Drummond Street, Fresno, California",38,275,"36.70556","-119.74139","http://aqicn.org/city/california/fresno/fresno-drummond-street/","pm25","2017-03-24 09:00:00","-07:00",12.15,76,1024,21,0.3,6.8,38,2.6,19.7,NA,NA,NA,NA,2017-03-24 14:08:03,NA,NA,NA,2017-03-24 22:01:19
"232","Fresno - Garland, Fresno, California",38,276,"36.78538","-119.77321","http://aqicn.org/city/california/fresno/fresno-garland/","pm25","2017-03-24 09:00:00","-07:00",12.15,76,1024,21,0.3,5.6,38,2.6,23.3,NA,NA,NA,NA,2017-03-24 14:08:03,NA,NA,NA,2017-03-24 22:01:19
"233","Huron - 4th Street, Fresno, California",20,277,"36.19865","-120.10117","http://aqicn.org/city/california/fresno/huron-4th-street/","pm10","2017-03-24 08:00:00","-07:00",8.51,87,1024,20,NA,8.9,9,NA,12.8,NA,NA,NA,NA,2017-03-24 14:08:03,NA,NA,NA,2017-03-24 22:01:19
"234","Tranquility, Fresno, California",55,278,"36.63434","-120.38234","http://aqicn.org/city/california/fresno/tranquility/","pm25","2017-03-24 09:00:00","-07:00",12.15,76,1024,20,NA,11.5,55,2,15.7,NA,NA,NA,NA,2017-03-24 14:08:03,NA,NA,NA,2017-03-24 22:01:19
"235","Bakersfield-California Avenue, Kern, California",46,279,"35.35662","-119.06261","http://aqicn.org/city/california/kern/bakersfield-california-avenue/","pm25","2017-03-24 09:00:00","-07:00",12.67,27,1025,NA,NA,6.5,46,NA,20.9,NA,NA,NA,NA,2017-03-24 14:08:03,NA,NA,NA,2017-03-24 22:01:19
"236","Lebec, Kern, California",50,280,"34.84155","-118.86058","http://aqicn.org/city/california/kern/lebec/","pm25","2017-03-24 09:00:00","-07:00",12.67,27,1025,NA,NA,NA,50,NA,18.4,NA,NA,NA,NA,2017-03-24 14:08:03,NA,NA,NA,2017-03-24 22:01:19
"237","Hanford-S Irwin Street, Kings, California",53,281,"36.31572","-119.64323","http://aqicn.org/city/california/kings/hanford-s-irwin-street/","pm25","2017-03-24 09:00:00","-07:00",8.51,87,1024,20,0.3,7.1,53,2.6,17.5,NA,NA,NA,NA,2017-03-24 14:08:03,NA,NA,NA,2017-03-24 22:01:19
"238","Madera - Pump Yard, Madera, California",72,282,"36.86719","-120.01011","http://aqicn.org/city/california/madera/madera-pump-yard/","pm25","2017-03-24 08:00:00","-07:00",10.65,71,1024,18,0.3,8.8,72,2,18.4,NA,NA,NA,NA,2017-03-24 14:08:03,NA,NA,NA,2017-03-24 22:01:19
"239","Merced - Coffee Road, Merced, California",63,283,"-120.43368","37.28177","http://aqicn.org/city/california/merced/merced-coffee-road/","pm25","2017-03-24 08:00:00","-07:00",10.65,71,1024,NA,NA,3,63,2.8,20.8,NA,NA,NA,NA,2017-03-24 14:08:03,NA,NA,NA,2017-03-24 22:01:19
"240","Manteca AMS, San Joaquin, California",42,284,"37.79338","-121.24779","http://aqicn.org/city/california/san-joaquin/manteca-ams/","pm25","2017-03-24 09:00:00","-07:00",11.04,93,1020,12,NA,11.2,42,2.2,11.4,NA,NA,NA,NA,2017-03-24 14:08:03,NA,NA,NA,2017-03-24 22:01:19
"241","Stockton-Hazelton, San Joaquin, California",53,285,"37.95075","-121.26897","http://aqicn.org/city/california/san-joaquin/stockton-hazelton/","pm25","2017-03-24 09:00:00","-07:00",11.9,82.8,1020,12,1.5,11.2,53,2.2,11.4,NA,NA,NA,NA,2017-03-24 14:08:03,NA,NA,NA,2017-03-24 22:01:19
"242","Tracy - Airport, San Joaquin, California",30,286,"37.68268","-121.44238","http://aqicn.org/city/california/san-joaquin/tracy-airport/","pm25","2017-03-24 09:00:00","-07:00",11.04,93,1020,10,NA,4.4,30,2.1,13.9,NA,NA,NA,NA,2017-03-24 14:08:03,NA,NA,NA,2017-03-24 22:01:19
"243","Modesto-14th Street, Stanislaus, California",55,287,"37.64217","-120.99421","http://aqicn.org/city/california/stanislaus/modesto-14th-street/","pm25","2017-03-24 09:00:00","-07:00",11.04,93,1020,19,NA,8.2,55,2.9,11.2,NA,NA,NA,NA,2017-03-24 14:08:03,NA,NA,NA,2017-03-24 22:01:19
"244","Porterville, Tulare, California",42,288,"-119.05505","36.03179","http://aqicn.org/city/california/tulare/porterville/","pm25","2017-03-24 09:00:00","-07:00",12.14,76,1024,20,NA,6.5,42,NA,27.7,NA,NA,NA,NA,2017-03-24 14:08:03,NA,NA,NA,2017-03-24 22:01:19
"245","Visalia, Tulare, California",38,289,"36.33252","-119.29095","http://aqicn.org/city/california/tulare/visalia/","pm25","2017-03-24 09:00:00","-07:00",12.14,76,1024,20,NA,6.5,38,NA,24.1,NA,NA,NA,NA,2017-03-24 14:08:03,NA,NA,NA,2017-03-24 22:01:19
"246","Bombay Beach, Imperial, California",24,290,"33.35264","-115.73419","http://aqicn.org/city/california/imperial/bombay-beach/","pm25","2017-03-24 07:00:00","-07:00",16.75,39,1023,NA,NA,NA,24,NA,7.3,NA,NA,NA,NA,2017-03-24 14:08:03,NA,NA,NA,2017-03-24 22:01:19
"247","Calexico-Ethel Street, Imperial, California",61,291,"32.67618","-115.48307","http://aqicn.org/city/california/imperial/calexico-ethel-street/","pm25","2017-03-24 09:00:00","-07:00",18.15,39,1023,59,1.5,26.9,61,8,14.5,NA,NA,NA,NA,2017-03-24 14:08:03,NA,NA,NA,2017-03-24 22:01:19
"248","Naval Test Base, Imperial, California",NA,292,"33.16923","-115.85593","http://aqicn.org/city/california/imperial/naval-test-base/","","2017-03-23 21:00:00","-07:00",16.75,39,1023,NA,NA,NA,7,NA,7.3,NA,NA,NA,NA,2017-03-24 14:08:03,NA,NA,NA,2017-03-24 22:01:19
"249","Sonny Bono, Imperial, California",34,293,"33.17638","-115.62310","http://aqicn.org/city/california/imperial/sonny-bono/","pm10",NA,"2017-03-16 21:00:00",26,31,1014,34,NA,NA,33,NA,7,NA,NA,NA,NA,2017-03-24 14:08:03,NA,NA,NA,2017-03-24 22:01:19
"250","Salton Sea Park, Riverside, California",5,294,"33.50896","-115.91954","http://aqicn.org/city/california/riverside/salton-sea-park/","o3",NA,"2016-12-21 22:00:00",8,100,1018,384,NA,NA,12,NA,5,NA,NA,NA,NA,2017-03-24 14:08:03,NA,NA,NA,2017-03-24 22:01:19
"251","Chico - East Avenue, Butte, California",38,296,"39.76168","-121.84047","http://aqicn.org/city/california/butte/chico-east-avenue/","pm25","2017-03-24 09:00:00","-07:00",9.9,95.7,1021,7,NA,5.6,38,2.2,22.4,NA,NA,NA,NA,2017-03-24 14:08:03,NA,NA,NA,2017-03-24 22:01:19
"252","Gridley, Butte, California",42,297,"39.32756","-121.66881","http://aqicn.org/city/california/butte/gridley/","pm25","2017-03-24 09:00:00","-07:00",10.8,92.1,1021,8,NA,6.5,42,NA,18,NA,NA,NA,NA,2017-03-24 14:08:03,NA,NA,NA,2017-03-24 22:01:19
"253","Colusa-Sunrise Blvd, Colusa, California",30,298,"39.18919","-121.99887","http://aqicn.org/city/california/colusa/colusa-sunrise-blvd/","pm25","2017-03-24 09:00:00","-07:00",10.6,92.3,1021,9,NA,6.5,30,NA,23.3,NA,NA,NA,NA,2017-03-24 14:08:03,NA,NA,NA,2017-03-24 22:01:19
"254","Willows-Colusa, Glenn, California",38,299,"39.53387","-122.19083","http://aqicn.org/city/california/glenn/willows-colusa/","pm25","2017-03-24 09:00:00","-07:00",9.4,93.3,1021,4,NA,5.6,38,2.2,29.6,NA,NA,NA,NA,2017-03-24 14:08:03,NA,NA,NA,2017-03-24 22:01:19
"255","Roseville-N Sunrise Ave, Placer, California",23,300,"38.74643","-121.26498","http://aqicn.org/city/california/placer/roseville-n-sunrise-ave/","o3","2017-03-24 09:00:00","-07:00",9.81,93,1021,3,NA,4.7,5,NA,23.3,NA,NA,NA,NA,2017-03-24 14:08:03,NA,NA,NA,2017-03-24 22:01:19
"256","Elk Grove - Bruceville Road, Sacramento, California",38,301,"38.30256","-121.42083","http://aqicn.org/city/california/sacramento/elk-grove-bruceville-road/","pm25","2017-03-24 09:00:00","-07:00",11.04,93,1020,1,1.5,1.9,38,3.7,20.8,NA,NA,NA,NA,2017-03-24 14:08:03,NA,NA,NA,2017-03-24 22:01:19
"257","Folsom-Natoma Street, Sacramento, California",27,302,"38.68329","-121.16444","http://aqicn.org/city/california/sacramento/folsom-natoma-street/","o3","2017-03-24 09:00:00","-07:00",11,93,1021,3,NA,1,21,NA,27.2,3.6,NA,NA,NA,2017-03-24 14:08:03,NA,NA,NA,2017-03-24 22:01:19
"258","Sacramento-Del Paso Manor, Sacramento, California",42,303,"38.61374","-121.36801","http://aqicn.org/city/california/sacramento/sacramento-del-paso-manor/","pm25","2017-03-24 09:00:00","-07:00",9.81,93,1021,1,NA,10.1,42,NA,14.5,NA,NA,NA,NA,2017-03-24 14:08:03,NA,NA,NA,2017-03-24 22:01:19
"259","Sacramento - 1309 T Street, Sacramento, California",21,304,"38.56844","-121.49311","http://aqicn.org/city/california/sacramento/sacramento-1309-t-street/","pm25","2017-03-24 08:00:00","-07:00",9.88,93,1022,1,NA,14,21,NA,14.1,NA,NA,NA,NA,2017-03-24 14:08:03,NA,NA,NA,2017-03-24 22:01:19
"260","Anderson-North Street, Shasta, California",52,305,"40.45318","-122.29883","http://aqicn.org/city/california/shasta/anderson-north-street/","pm25","2017-03-24 09:00:00","-07:00",10.54,87,1021,NA,NA,NA,52,NA,28.3,NA,NA,NA,NA,2017-03-24 14:08:03,NA,NA,NA,2017-03-24 22:01:19
"261","Vacaville-Ulatis Drive, Solano, California",21,306,"38.35655","-121.94986","http://aqicn.org/city/california/solano/vacaville-ulatis-drive/","pm25","2017-03-24 09:00:00","-07:00",9.9,81,NA,1,1.5,3.8,21,5.4,16.6,1,NA,NA,NA,2017-03-24 14:08:03,NA,NA,NA,2017-03-24 22:01:19
"262","Yuba City, Sutter, California",25,307,"39.13876","-121.61872","http://aqicn.org/city/california/sutter/yuba-city/","pm25","2017-03-24 09:00:00","-07:00",9.7,92.1,1021,8,NA,3.8,25,NA,20,NA,NA,NA,NA,2017-03-24 14:08:03,NA,NA,NA,2017-03-24 22:01:19
"263","Davis-UCD Campus, Yolo, California",50,308,"38.53455","-121.7734","http://aqicn.org/city/california/yolo/davis-ucd-campus/","pm25","2017-03-24 09:00:00","-07:00",11.3,88.6,1021,1,NA,3.8,50,NA,23.3,NA,NA,NA,NA,2017-03-24 14:08:03,NA,NA,NA,2017-03-24 22:01:19
"264","Woodland-Gibson Road, Yolo, California",22,309,"38.66121","-121.73269","http://aqicn.org/city/california/yolo/woodland-gibson-road/","o3","2017-03-24 09:00:00","-07:00",11,93,1021,1,NA,3.8,21,NA,21.9,4.1,NA,NA,NA,2017-03-24 14:08:03,NA,NA,NA,2017-03-24 22:01:19
"265","Turlock-S Minaret Street, Stanislaus, California",61,310,"37.48822","-120.83592","http://aqicn.org/city/california/stanislaus/turlock-s-minaret-street/","pm25","2017-03-24 09:00:00","-07:00",10.595,90,1023,19,NA,8.2,61,2.9,15.4,NA,NA,NA,NA,2017-03-24 14:08:03,NA,NA,NA,2017-03-24 22:01:19
"266","Anaheim-Loara School, Orange, California",48,317,"33.83061","-117.9385","http://aqicn.org/city/california/orange/anaheim-loara-school/","pm25","2017-03-24 09:00:00","-07:00",13.75,82,1024,16,1.5,18.9,48,7.3,10.8,NA,NA,NA,NA,2017-03-24 14:08:03,NA,NA,NA,2017-03-24 22:01:19
"267","Paradise - Theater, Butte, California",22,324,"-121.59135","39.77919","http://aqicn.org/city/california/butte/paradise-theater/","o3","2017-03-24 09:00:00","-07:00",10.54,87,1021,7,NA,5.6,9,2.2,22.4,NA,NA,NA,NA,2017-03-24 14:08:03,NA,NA,NA,2017-03-24 22:01:19
"268","Thousand Oaks-Moorpark Road, Ventura, California",61,325,"34.21014","-118.8705","http://aqicn.org/city/california/ventura/thousand-oaks-moorpark-road/","pm25","2017-03-24 09:00:00","-07:00",14.4,64,1024.5,20,NA,2.1,61,5.6,20,1.1,NA,NA,NA,2017-03-24 14:08:03,NA,NA,NA,2017-03-24 22:01:19
"269","Ukiah - Library, Mendocino, California",21,326,"-123.20655","39.15047","http://aqicn.org/city/california/mendocino/ukiah-library/","pm25","2017-03-24 09:00:00","-07:00",9.3,87,1018,NA,NA,NA,21,NA,NA,NA,NA,NA,NA,2017-03-24 14:08:03,NA,NA,NA,2017-03-24 22:01:19
"270","Salton City, Imperial, California",14,327,"-115.90062","33.27275","http://aqicn.org/city/california/imperial/salton-city/","pm25","2017-03-24 07:00:00","-07:00",16.75,39,1023,NA,NA,NA,14,NA,7.3,NA,NA,NA,NA,2017-03-24 14:08:03,NA,NA,NA,2017-03-24 22:01:19
"271","Hollister-Fairview Road, San Benito, California",17,328,"36.84343","-121.3621","http://aqicn.org/city/california/san-benito/hollister-fairview-road/","pm25","2017-03-24 08:00:00","-07:00",9.9,93,1023,10,NA,3.8,17,2.3,13.6,2.1,NA,NA,NA,2017-03-24 14:08:03,NA,NA,NA,2017-03-24 22:01:19
"272","Americana, So Paulo",48,329,"-23.4892079","-46.6741555","http://aqicn.org/city/brazil/sao-paulo/americana/","o3","2017-03-24 14:00:00","-03:00",28.15,45,961.83,40,NA,NA,NA,NA,48,NA,NA,NA,NA,2017-03-24 14:08:03,NA,NA,NA,2017-03-24 22:01:19
"273","Araatuba, So Paulo",39,330,"-21.1860297","-50.4394393","http://aqicn.org/city/brazil/sao-paulo/aracatuba/","o3","2017-03-24 14:00:00","-03:00",33.22,52,976.46,20,NA,NA,NA,NA,38.6,NA,NA,NA,NA,2017-03-24 14:08:03,NA,NA,NA,2017-03-24 22:01:19
"274","Araraquara, So Paulo",44,331,"-21.7829663","-48.1864714","http://aqicn.org/city/brazil/sao-paulo/araraquara/","o3","2017-03-24 14:00:00","-03:00",31.12,58,1017,27,NA,2.8,NA,NA,43.9,NA,NA,NA,NA,2017-03-24 14:08:03,NA,NA,NA,2017-03-24 22:01:19
"275","Bauru, So Paulo",39,332,"-22.329295","-49.0905538","http://aqicn.org/city/brazil/sao-paulo/bauru/","o3","2017-03-24 14:00:00","-03:00",31.87,50,965.27,24,NA,0.5,NA,NA,39.4,NA,NA,NA,NA,2017-03-24 14:08:03,NA,NA,NA,2017-03-24 22:01:19
"276","Campinas-Centro, So Paulo",27,333,"-22.9028433","-47.0571098","http://aqicn.org/city/brazil/sao-paulo/campinas-centro/","pm10","2017-03-24 14:00:00","-03:00",28.15,45,961.83,27,NA,NA,NA,5.5,NA,NA,NA,NA,NA,2017-03-24 14:08:03,NA,NA,NA,2017-03-24 22:01:19
"277","Capo Redondo, So Paulo",47,334,"-23.6667239","-46.7816448","http://aqicn.org/city/brazil/sao-paulo/capao-redondo/","o3","2017-03-24 14:00:00","-03:00",27.15,45.5,1017.5,32,NA,12.4,NA,NA,47.2,NA,NA,NA,NA,2017-03-24 14:08:03,NA,NA,NA,2017-03-24 22:01:19
"278","Carapicuba, So Paulo",30,335,"-46.8411243","-23.5239623","http://aqicn.org/city/brazil/sao-paulo/carapicuiba/","pm10","2017-03-24 14:00:00","-03:00",27.15,45.5,1017.5,30,NA,14.7,NA,2.8,29.7,NA,NA,NA,NA,2017-03-24 14:08:03,NA,NA,NA,2017-03-24 22:01:19
"279","Catanduva, So Paulo",33,336,"-21.1420049","-48.9829903","http://aqicn.org/city/brazil/sao-paulo/catanduva/","o3","2017-03-24 14:00:00","-03:00",31.15,35,1016,26,NA,1.9,NA,NA,32.5,NA,NA,NA,NA,2017-03-24 14:08:03,NA,NA,NA,2017-03-24 22:01:19
"280","Cerqueira Csar, So Paulo",26,337,"-23.5502041","-46.6784605","http://aqicn.org/city/brazil/sao-paulo/cerqueira-cesar/","pm10","2017-03-24 14:00:00","-03:00",29.52,64,NA,26,0.6,22.9,NA,6.4,NA,NA,NA,NA,NA,2017-03-24 14:08:03,NA,NA,NA,2017-03-24 22:01:19
"281","Congonhas, So Paulo",68,338,"-23.6186305","-46.6482747","http://aqicn.org/city/brazil/sao-paulo/congonhas/","pm25","2017-03-24 14:00:00","-03:00",27.15,45.5,1017.5,34,1.1,46.7,68,9.1,NA,NA,NA,NA,NA,2017-03-24 14:08:03,NA,NA,NA,2017-03-24 22:01:19
"282","Cubato-Centro, So Paulo",44,339,"-46.4179827","-23.880185","http://aqicn.org/city/brazil/sao-paulo/cubatao-centro/","o3","2017-03-24 14:00:00","-03:00",27.15,44,1017,25,5.6,8.3,NA,NA,43.5,NA,NA,NA,NA,2017-03-24 14:08:03,NA,NA,NA,2017-03-24 22:01:19
"283","Cubato-Vale do Mogi, So Paulo",40,340,"-23.8436848","-46.377867","http://aqicn.org/city/brazil/sao-paulo/cubatao-vale-do-mogi/","pm10","2017-03-24 14:00:00","-03:00",27.15,45.5,1017.5,40,5.1,12.8,NA,NA,30.5,NA,NA,NA,NA,2017-03-24 14:08:03,NA,NA,NA,2017-03-24 22:01:19
"284","Cubato-Vila Parisi, So Paulo",114,341,"-23.8508082","-46.389992","http://aqicn.org/city/brazil/sao-paulo/cubatao-vila-parisi/","pm10","2017-03-24 14:00:00","-03:00",27.15,45.5,1017.5,114,5.6,9.6,NA,NA,NA,NA,NA,NA,NA,2017-03-24 14:08:03,NA,NA,NA,2017-03-24 22:01:19
"285","Diadema, So Paulo",60,342,"-23.6818396","-46.620967","http://aqicn.org/city/brazil/sao-paulo/diadema/","o3","2017-03-24 14:00:00","-03:00",27.15,45.5,1017.5,23,NA,NA,NA,NA,60.4,NA,NA,NA,NA,2017-03-24 14:08:03,NA,NA,NA,2017-03-24 22:01:19
"286","Guarulhos-Pao Municipal, So Paulo",59,343,"-23.4562135","-46.5182887","http://aqicn.org/city/brazil/sao-paulo/guarulhos-paco-municipal/","pm25","2017-03-24 14:00:00","-03:00",28.15,45,961.83,32,NA,6,59,NA,40.3,NA,NA,NA,NA,2017-03-24 14:08:03,NA,NA,NA,2017-03-24 22:01:19
"287","Ibirapuera, So Paulo",51,344,"-23.5804482","-46.6638124","http://aqicn.org/city/brazil/sao-paulo/ibirapuera/","o3","2017-03-24 14:00:00","-03:00",27.15,45.5,1017.5,NA,NA,13.8,21,1,50.6,NA,NA,NA,NA,2017-03-24 14:08:03,NA,NA,NA,2017-03-24 22:01:19
"288","Interlagos, So Paulo",64,345,"-23.6824703","-46.676091","http://aqicn.org/city/brazil/sao-paulo/interlagos/","o3","2017-03-24 14:00:00","-03:00",27.15,45.5,1017.5,21,1.6,16.5,NA,NA,63.6,NA,NA,NA,NA,2017-03-24 14:08:03,NA,NA,NA,2017-03-24 22:01:19
"289","Itaim Paulista, So Paulo",61,347,"-23.5019101","-46.4204122","http://aqicn.org/city/brazil/sao-paulo/itaim-paulista/","pm25","2017-03-24 14:00:00","-03:00",27.15,44,1017,NA,NA,NA,61,NA,46.3,NA,NA,NA,NA,2017-03-24 14:08:03,NA,NA,NA,2017-03-24 22:01:19
"290","Itaquera, So Paulo",45,348,"-23.5817434","-46.462333","http://aqicn.org/city/brazil/sao-paulo/itaquera/","o3","2017-03-24 14:00:00","-03:00",27.15,44,1017,NA,NA,NA,NA,NA,44.7,NA,NA,NA,NA,2017-03-24 14:08:03,NA,NA,NA,2017-03-24 22:01:19
"291","Jacare, So Paulo",74,349,"-23.2978962","-45.9676625","http://aqicn.org/city/brazil/sao-paulo/jacarei/","pm10","2017-03-24 14:00:00","-03:00",28.5,39,1015,74,NA,3.7,NA,NA,34.6,NA,NA,NA,NA,2017-03-24 14:08:03,NA,NA,NA,2017-03-24 22:01:19
"292","Ja, So Paulo",35,350,"-22.2995131","-48.5650057","http://aqicn.org/city/brazil/sao-paulo/jau/","o3","2017-03-24 14:00:00","-03:00",31.87,50,965.27,21,NA,5.5,NA,NA,35.4,NA,NA,NA,NA,2017-03-24 14:08:03,NA,NA,NA,2017-03-24 22:01:19
"293","Jundia, So Paulo",45,351,"-23.6527809","-46.7123885","http://aqicn.org/city/brazil/sao-paulo/jundiai/","o3","2017-03-24 14:00:00","-03:00",28.15,45,961.83,26,NA,5.5,NA,NA,45.1,NA,NA,NA,NA,2017-03-24 14:08:03,NA,NA,NA,2017-03-24 22:01:19
"294","Marg.Tiet-Ponte dos Remdios, So Paulo",74,352,"-23.5094696","-46.7094213","http://aqicn.org/city/brazil/sao-paulo/marg.tiete-ponte-dos-remedios/","pm25","2017-03-24 14:00:00","-03:00",27.15,45.5,1017.5,44,1.1,36.2,74,6.4,NA,NA,NA,NA,NA,2017-03-24 14:08:03,NA,NA,NA,2017-03-24 22:01:19
"295","Marlia, So Paulo",38,353,"-49.9599878","-22.1998744","http://aqicn.org/city/brazil/sao-paulo/marilia/","o3","2017-03-24 14:00:00","-03:00",31.67,52,960.73,17,NA,1.9,NA,NA,37.8,NA,NA,NA,NA,2017-03-24 14:08:03,NA,NA,NA,2017-03-24 22:01:19
"296","Mau, So Paulo",73,354,"-23.6693596","-46.4655954","http://aqicn.org/city/brazil/sao-paulo/maua/","o3","2017-03-24 14:00:00","-03:00",27.15,44,1017,63,NA,12.8,NA,NA,73.4,NA,NA,NA,NA,2017-03-24 14:08:03,NA,NA,NA,2017-03-24 22:01:19
"297","Mooca, So Paulo",38,355,"-46.5995903","-23.5603265","http://aqicn.org/city/brazil/sao-paulo/mooca/","o3","2017-03-24 14:00:00","-03:00",27.15,45.5,1017.5,25,NA,NA,NA,3.7,37.8,NA,NA,NA,NA,2017-03-24 14:08:03,NA,NA,NA,2017-03-24 22:01:19
"298","Nossa Senhora do , So Paulo",42,356,"-23.6033222","-46.5111479","http://aqicn.org/city/brazil/sao-paulo/nossa-senhora-do-o/","o3","2017-03-24 14:00:00","-03:00",27.15,45.5,1017.5,18,NA,NA,NA,NA,42.3,NA,NA,NA,NA,2017-03-24 14:08:03,NA,NA,NA,2017-03-24 22:01:19
"299","Osasco, So Paulo",21,357,"-23.5279275","-46.8143874","http://aqicn.org/city/brazil/sao-paulo/osasco/","pm10","2017-03-24 14:00:00","-03:00",27.15,45.5,1017.5,21,1.1,23.4,NA,5.5,NA,NA,NA,NA,NA,2017-03-24 14:08:03,NA,NA,NA,2017-03-24 22:01:19
"300","Parelheiros, So Paulo",57,358,"-21.4649748","-49.2246518","http://aqicn.org/city/brazil/sao-paulo/parelheiros/","o3","2017-03-24 14:00:00","-03:00",27.15,45.5,1017.5,39,NA,10.1,57,3.7,57.1,NA,NA,NA,NA,2017-03-24 14:08:03,NA,NA,NA,2017-03-24 22:01:19
"301","Parque D.Pedro II, So Paulo",65,359,"-23.5406338","-46.6320967","http://aqicn.org/city/brazil/sao-paulo/parque-d.pedro-ii/","pm25","2017-03-24 14:00:00","-03:00",28.15,45,961.83,31,NA,17.4,65,2.8,41.9,NA,NA,NA,NA,2017-03-24 14:08:03,NA,NA,NA,2017-03-24 22:01:19
"302","Paulnia, So Paulo",40,360,"-47.1500274","-22.7650153","http://aqicn.org/city/brazil/sao-paulo/paulinia/","o3","2017-03-24 14:00:00","-03:00",28.15,45,961.83,22,0.6,3.2,NA,NA,39.8,NA,NA,NA,NA,2017-03-24 14:08:03,NA,NA,NA,2017-03-24 22:01:19
"303","Paulnia-Sul, So Paulo",38,361,"-22.6794457","-47.6824383","http://aqicn.org/city/brazil/sao-paulo/paulinia-sul/","o3","2017-03-24 14:00:00","-03:00",27.15,45.5,1017.5,16,2.1,2.3,NA,NA,37.8,NA,NA,NA,NA,2017-03-24 14:08:03,NA,NA,NA,2017-03-24 22:01:19
"304","Pinheiros, So Paulo",59,362,"-23.5630037","-46.6864347","http://aqicn.org/city/brazil/sao-paulo/pinheiros/","pm25","2017-03-24 14:00:00","-03:00",27.15,45.5,1017.5,32,NA,22.9,59,3.7,35.8,NA,NA,NA,NA,2017-03-24 14:08:03,NA,NA,NA,2017-03-24 22:01:19
"305","Piracicaba, So Paulo",57,363,"-22.7007113","-47.651941","http://aqicn.org/city/brazil/sao-paulo/piracicaba/","pm25","2017-03-24 14:00:00","-03:00",28.15,50,1016.5,30,NA,3.2,57,NA,47.6,NA,NA,NA,NA,2017-03-24 14:08:03,NA,NA,NA,2017-03-24 22:01:19
"306","Presidente Prudente, So Paulo",44,364,"-22.1205834","-51.4053949","http://aqicn.org/city/brazil/sao-paulo/presidente-prudente/","o3","2017-03-24 14:00:00","-03:00",32.08,58,981.44,16,NA,NA,NA,NA,43.9,NA,NA,NA,NA,2017-03-24 14:08:03,NA,NA,NA,2017-03-24 22:01:19
"307","Ribeiro Preto, So Paulo",NA,365,"-21.1551602","-47.8276963","http://aqicn.org/city/brazil/sao-paulo/ribeirao-preto/","","","",19.15,72,1020,NA,NA,NA,NA,NA,NA,4.1,0,NA,NA,2017-03-24 14:08:03,NA,NA,NA,2017-03-24 22:01:19
"308","S.Andr-Capuava, So Paulo",73,367,"-23.645681","-46.4933389","http://aqicn.org/city/brazil/sao-paulo/s.andre-capuava/","o3","2017-03-24 14:00:00","-03:00",27.15,45.5,1017.5,37,2.1,NA,NA,NA,73.4,NA,NA,NA,NA,2017-03-24 14:08:03,NA,NA,NA,2017-03-24 22:01:19
"309","S.Andr-Pao Municipal, So Paulo",38,368,"-23.5406338","-46.6320967","http://aqicn.org/city/brazil/sao-paulo/s.andre-paco-municipal/","pm10","2017-03-24 14:00:00","-03:00",27.15,45.5,1017.5,38,NA,NA,NA,7.3,NA,NA,NA,NA,NA,2017-03-24 14:08:03,NA,NA,NA,2017-03-24 22:01:19
"310","Santana, So Paulo",47,369,"-23.498181","-46.6263306","http://aqicn.org/city/brazil/sao-paulo/santana/","o3","2017-03-24 14:00:00","-03:00",27.15,45.5,1017.5,NA,NA,NA,NA,NA,47.2,NA,NA,NA,NA,2017-03-24 14:08:03,NA,NA,NA,2017-03-24 22:01:19
"311","Santo Amaro, So Paulo",52,370,"-23.6600932","-46.6552137","http://aqicn.org/city/brazil/sao-paulo/santo-amaro/","o3","2017-03-24 14:00:00","-03:00",27.15,45.5,1017.5,42,NA,NA,NA,5.5,51.9,NA,NA,NA,NA,2017-03-24 14:08:03,NA,NA,NA,2017-03-24 22:01:19
"312","Santos, So Paulo",5,371,"-23.9628155","-46.3202369","http://aqicn.org/city/brazil/sao-paulo/santos/","pm10","2017-03-24 09:00:00","-03:00",19.745,82.5,1016.5,5,NA,17.4,NA,NA,1.3,NA,NA,NA,NA,2017-03-24 14:08:03,NA,NA,NA,2017-03-24 22:01:19
"313","Santos-Ponta da Praia, So Paulo",59,372,"-23.9821223","-46.3000817","http://aqicn.org/city/brazil/sao-paulo/santos-ponta-da-praia/","pm25","2017-03-24 14:00:00","-03:00",27.15,44,1017,14,1.6,3.2,59,NA,17.5,NA,NA,NA,NA,2017-03-24 14:08:03,NA,NA,NA,2017-03-24 22:01:19
"314","So Caetano do Sul, So Paulo",46,373,"-23.6233625","-46.5552433","http://aqicn.org/city/brazil/sao-paulo/sao-caetano-do-sul/","o3","2017-03-24 14:00:00","-03:00",27.15,45.5,1017.5,36,0.6,23.4,NA,3.7,46.3,NA,NA,NA,NA,2017-03-24 14:08:03,NA,NA,NA,2017-03-24 22:01:19
"315","So Jos do Rio Preto, So Paulo",32,374,"-20.7846581","-49.3981148","http://aqicn.org/city/brazil/sao-paulo/sao-jose-do-rio-preto/","o3","2017-03-24 14:00:00","-03:00",31.15,35,1016,22,NA,2.3,25,NA,31.7,NA,NA,NA,NA,2017-03-24 14:08:03,NA,NA,NA,2017-03-24 22:01:19
"316","Sorocaba, So Paulo",35,376,"-23.5026065","-47.4776113","http://aqicn.org/city/brazil/sao-paulo/sorocaba/","o3","2017-03-24 14:00:00","-03:00",27.15,45.5,1017.5,15,NA,4.2,NA,NA,35.4,NA,NA,NA,NA,2017-03-24 14:08:03,NA,NA,NA,2017-03-24 22:01:19
"317","Taboo da Serra, So Paulo",15,377,"-46.7559386","-23.6090545","http://aqicn.org/city/brazil/sao-paulo/taboao-da-serra/","pm10","2017-03-24 14:00:00","-03:00",27.15,45.5,1017.5,15,NA,16,NA,4.6,NA,NA,NA,NA,NA,2017-03-24 14:08:03,NA,NA,NA,2017-03-24 22:01:19
"318","Tatu, So Paulo",37,378,"-22.97572","-47.0039545","http://aqicn.org/city/brazil/sao-paulo/tatui/","o3","2017-03-24 14:00:00","-03:00",28.15,50,1016.5,19,NA,1.4,NA,NA,36.6,NA,NA,NA,NA,2017-03-24 14:08:03,NA,NA,NA,2017-03-24 22:01:19
"319","Villa Maria Del Triunfo, Lima",92,382,"-12.1580556","-76.9294444","http://aqicn.org/city/peru/lima/villa-maria-del-triunfo/","pm10",NA,"2017-03-22 09:00:00",21,82,NA,92,1,9,89,10,6,NA,NA,NA,NA,2017-03-24 14:08:03,NA,NA,NA,2017-03-24 22:01:19
"320","Celaya Policia, Celaya",18,383,"20.518569711338","-100.81674332276","http://aqicn.org/city/mexico/celaya/celaya-policia/","co",NA,"2016-12-19 10:00:00",14,82,623,30,2,2,33,18,13,4,NA,NA,NA,2017-03-24 14:08:03,NA,NA,NA,2017-03-24 22:01:19
"321","Celaya San Juanico, Celaya",111,384,"20.537937144279","-100.84064845752","http://aqicn.org/city/mexico/celaya/celaya-san-juanico/","pm25","2017-03-24 11:00:00","-06:00",21.15,52,1027,108,4.3,6.1,111,12.9,30.4,4,NA,247.4,NA,2017-03-24 14:08:03,NA,NA,NA,2017-03-24 22:01:19
"322","Estacin de Bomberos No.5, Chihuahua",78,385,"28.632583333333","-106.03883333333","http://aqicn.org/city/mexico/chihuahua/estacion-de-bomberos-no.5/","pm25","2017-03-24 10:00:00","-06:00",15.4,18.2,648.4,69,7.3,8.4,78,16.7,37.6,18.4722,NA,5.6,NA,2017-03-24 14:08:03,NA,NA,NA,2017-03-24 22:01:19
"323","Secundaria No. 9, Ensenada",NA,386,"31.8599083333","-116.603822222","http://aqicn.org/city/mexico/ensenada/secundaria-no.-9/","","","-0500",17.4,77,960.05,NA,NA,NA,NA,NA,NA,NA,NA,NA,NA,2017-03-24 14:08:03,NA,NA,NA,2017-03-24 22:01:19
"324","Loma Dorada, Guadalajara",55,387,"20.629554249053","-103.26392977309","http://aqicn.org/city/mexico/guadalajara/loma-dorada/","pm10","2017-03-24 09:00:00","-06:00",18.633,49.029,1025,55,2.7,33.2,144,11.5,6.9,0.59816,NA,211.58,NA,2017-03-24 14:08:03,NA,NA,NA,2017-03-24 22:01:19
"325","Las Pintas, Guadalajara",74,388,"20.5767","-103.32652222222","http://aqicn.org/city/mexico/guadalajara/las-pintas/","pm10","2017-03-24 10:00:00","-06:00",24.405,46.456,638.34,74,6.6,21.8,144,5.7,24.1,1.365,NA,236.59,NA,2017-03-24 14:08:03,NA,NA,NA,2017-03-24 22:01:19
"326","Miravalle, Guadalajara",74,389,"20.61504997567","-103.34343019128","http://aqicn.org/city/mexico/guadalajara/miravalle/","pm10","2017-03-24 10:00:00","-06:00",22.671,56.046,1024,74,4.7,15.9,144,12.7,22.7,1.6111,NA,0.12471,NA,2017-03-24 14:08:03,NA,NA,NA,2017-03-24 22:01:19
"327","Tlaquepaque, Guadalajara",60,390,"20.641445843732","-103.31262961377","http://aqicn.org/city/mexico/guadalajara/tlaquepaque/","pm10","2017-03-24 10:00:00","-06:00",23.142,37.797,1024,60,5.9,33.8,144,15.3,9.7,2.1759,NA,12.862,NA,2017-03-24 14:08:03,NA,NA,NA,2017-03-24 22:01:19
"328","Vallarta, Guadalajara",18,391,"20.680450840176","-103.39873310432","http://aqicn.org/city/mexico/guadalajara/vallarta/","co","2017-03-24 10:00:00","-06:00",21.728,41.269,1024,42,2.5,52,144,18,15.7,2.768,NA,57.039,NA,2017-03-24 14:08:03,NA,NA,NA,2017-03-24 22:01:19
"329","Pachuca Centro, Hgo",164,392,"20.120195464739","-98.740000744464","http://aqicn.org/city/mexico/hgo/pachuca-centro/","pm25","2017-03-24 10:00:00","-06:00",15.1447,32.7812,575.108,8,5.7,31.1,164,10.1,51.8,0.357553,NA,234.66,NA,2017-03-24 14:08:03,NA,NA,NA,2017-03-24 22:01:19
"330","Irapuato Bomberos, Irapuato",148,393,"20.674779695762","-101.35569204208","http://aqicn.org/city/mexico/irapuato/irapuato-bomberos/","pm10","2017-03-24 11:00:00","-06:00",21.15,52,1027,148,11.5,12.9,119,0.1,17.6,1.7,NA,214.6,NA,2017-03-24 14:08:03,NA,NA,NA,2017-03-24 22:01:19
"331","T21, Len",58,394,"21.10868","-101.68874","http://aqicn.org/city/mexico/leon/t21/","pm10","2017-03-24 11:00:00","-06:00",23.15,43,1027,58,8.6,4,NA,2.6,28.9,2.2,NA,199,NA,2017-03-24 14:08:03,NA,NA,NA,2017-03-24 22:01:19
"332","Nativitas, Salamanca",43,395,"20.570367344035","-101.19007817525","http://aqicn.org/city/mexico/salamanca/nativitas/","pm10","2017-03-24 11:00:00","-06:00",21.15,52,1027,43,8.6,6.2,NA,17.2,12.1,3.1,NA,272.3,NA,2017-03-24 14:08:03,NA,NA,NA,2017-03-24 22:01:19
"333","Metepec, Toluca",159,396,"19.270192914173","-99.595307048355","http://aqicn.org/city/mexico/toluca/metepec/","pm25","2017-03-24 10:00:00","-06:00",20.5,43.6,562,92,12.9,44.5,159,15.7,32.8,1.34,NA,329.8,NA,2017-03-24 14:08:03,NA,NA,NA,2017-03-24 22:01:19
"334","Toluca Centro, Toluca",134,397,"19.294298341379","-99.655297086786","http://aqicn.org/city/mexico/toluca/toluca-centro/","pm25","2017-03-24 10:00:00","-06:00",19.2,42.4,558,69,11.5,38,134,10.1,36.1,1.45,NA,8.7,NA,2017-03-24 14:08:03,NA,NA,NA,2017-03-24 22:01:19
"335","Villa de las Flores, Mxico",167,398,"19.658223","-99.09659","http://aqicn.org/city/mexico/mexico/villa-de-las-flores/","pm25","2017-03-24 10:00:00","-06:00",17.1,37,NA,125,11.5,69.6,167,16.7,13.6,3.5,NA,128,NA,2017-03-24 14:08:03,NA,NA,NA,2017-03-24 22:01:19
"336","Acolman, Mxico",160,399,"19.635501","-98.912003","http://aqicn.org/city/mexico/mexico/acolman/","pm25","2017-03-24 10:00:00","-06:00",15.94,65,NA,155,8.6,52.2,160,15.6,22.4,NA,NA,NA,NA,2017-03-24 14:08:03,NA,NA,NA,2017-03-24 22:01:19
"337","Tultitlan, Mxico",156,400,"19.601973592327","-99.176832931342","http://aqicn.org/city/mexico/mexico/tultitlan/","pm25","2017-03-24 10:00:00","-06:00",15.94,65,NA,84,8.6,12.1,156,16.7,24.8,NA,NA,NA,NA,2017-03-24 14:08:03,NA,NA,NA,2017-03-24 22:01:19
"338","San Agunstn, Mxico",NA,401,"19.532251530332","-99.029948820132","http://aqicn.org/city/mexico/mexico/san-agunstin/","","","-0500",7.88,100,NA,NA,NA,NA,NA,NA,NA,NA,NA,NA,NA,2017-03-24 14:08:03,NA,NA,NA,2017-03-24 22:01:19
"339","Xalostoc, Mxico",167,402,"19.525995","-99.0824","http://aqicn.org/city/mexico/mexico/xalostoc/","pm25","2017-03-24 10:00:00","-06:00",17.3,31,NA,141,7.2,75.1,167,23.4,20,6.3,NA,140,NA,2017-03-24 14:08:03,NA,NA,NA,2017-03-24 22:01:19
"340","Tlaneplantla, Mxico",NA,403,"19.528397053703","-99.204241583862","http://aqicn.org/city/mexico/mexico/tlaneplantla/","","","-0500",7.88,100,NA,NA,NA,NA,NA,NA,NA,NA,NA,NA,NA,2017-03-24 14:08:03,NA,NA,NA,2017-03-24 22:01:19
"341","Merced, Mxico",132,404,"19.42461","-99.119594","http://aqicn.org/city/mexico/mexico/merced/","pm25","2017-03-24 09:00:00","-06:00",15.9,41,1028,62,7.2,60.9,132,22.3,10.4,4,NA,188,NA,2017-03-24 14:08:03,NA,NA,NA,2017-03-24 22:01:19
"342","Iztacalco, Mxico",132,405,"19.384413","-99.117641","http://aqicn.org/city/mexico/mexico/iztacalco/","pm25","2017-03-24 09:00:00","-06:00",17.56,29,1028,49,5.8,57.7,132,24.5,12.8,NA,NA,NA,NA,2017-03-24 14:08:03,NA,NA,NA,2017-03-24 22:01:19
"343","Pedregal, Mxico",97,407,"-99.204136","19.325146","http://aqicn.org/city/mexico/mexico/pedregal/","pm25","2017-03-24 10:00:00","-06:00",18.6,34,1028,53,4.3,43.6,97,11.2,28.9,5.1,NA,81,NA,2017-03-24 14:08:03,NA,NA,NA,2017-03-24 22:01:19
"344","Santa Ursula, Mxico",NA,408,"19.313687302949","-99.149667649478","http://aqicn.org/city/mexico/mexico/santa-ursula/","","","-0500",12.28,63,NA,NA,NA,NA,NA,NA,NA,NA,NA,NA,NA,2017-03-24 14:08:03,NA,NA,NA,2017-03-24 22:01:19
"345","Tlahuac, Mxico",102,409,"19.246459","-99.010564","http://aqicn.org/city/mexico/mexico/tlahuac/","pm10","2017-03-24 10:00:00","-06:00",16.9,39,1028,102,2.9,13.9,95,11.2,32,4.5,NA,40,NA,2017-03-24 14:08:03,NA,NA,NA,2017-03-24 22:01:19
"346","FES Acatln, Mxico",156,410,"19.482473","-99.243524","http://aqicn.org/city/mexico/mexico/fes-acatlan/","pm25","2017-03-24 10:00:00","-06:00",15.3,42,1028,87,5.8,58.7,156,22.3,6.4,2.6,NA,5,NA,2017-03-24 14:08:03,NA,NA,NA,2017-03-24 22:01:19
"347","Hospital General de Mxico, Mxico",142,411,"19.411617","-99.152207","http://aqicn.org/city/mexico/mexico/hospital-general-de-mexico/","pm25","2017-03-24 10:00:00","-06:00",19.2,28,1028,68,2.9,48.2,142,15.6,32,3.5,NA,48,NA,2017-03-24 14:08:03,NA,NA,NA,2017-03-24 22:01:19
"348","Santa Fe, Mxico",82,412,"19.3863928","-99.2255625","http://aqicn.org/city/mexico/mexico/santa-fe/","pm25","2017-03-24 11:00:00","-06:00",17.2,36,1028,51,5.8,33.4,82,20,32.8,1.9,NA,68,NA,2017-03-24 14:08:03,NA,NA,NA,2017-03-24 22:01:19
"349","Coyoacn, Mxico",134,413,"19.350258","-99.157101","http://aqicn.org/city/mexico/mexico/coyoacan/","pm25","2017-03-24 10:00:00","-06:00",20.03,28,1028,66,4.3,47.3,134,16.7,30.4,NA,NA,NA,NA,2017-03-24 14:08:03,NA,NA,NA,2017-03-24 22:01:19
"350","Escuela E-10",66,414,"-22.085518710314","-70.188682515839","http://aqicn.org/city/chile/escuela-e-10/","pm25","2017-03-24 15:00:00","-03:00",21.92,85,NA,63,9.5,0.2,66,4.9,10.3,NA,NA,NA,NA,2017-03-24 14:08:03,NA,NA,NA,2017-03-24 22:01:19
"351","Complejo Deportivo 23 de Marzo",29,416,"-22.460270722943","-68.937706917007","http://aqicn.org/city/chile/complejo-deportivo-23-de-marzo/","pm25","2017-03-24 13:00:00","-03:00",23.15,35,1026,21,2,NA,29,4,17.7,NA,NA,NA,NA,2017-03-24 14:08:03,NA,NA,NA,2017-03-24 22:01:19
"352","Colegio Pedro Vergara Keller",50,417,"-22.44283906304","-68.932546346863","http://aqicn.org/city/chile/colegio-pedro-vergara-keller/","pm25","2017-03-24 13:00:00","-03:00",23.15,35,1026,33,2,NA,50,4,17.7,NA,NA,NA,NA,2017-03-24 14:08:03,NA,NA,NA,2017-03-24 22:01:19
"353","Antofagasta",41,418,"-23.61354215815","-70.383315682411","http://aqicn.org/city/chile/antofagasta/","pm10","2017-03-24 14:00:00","-03:00",22.15,60,1014,41,NA,NA,36,NA,NA,NA,NA,NA,NA,2017-03-24 14:08:03,NA,NA,NA,2017-03-24 22:01:19
"354","Rancagua I",63,419,"-34.162314609087","-70.713919225517","http://aqicn.org/city/chile/rancagua-i/","pm25","2017-03-24 13:00:00","-03:00",15.76,68,1016,51,1.5,NA,63,9,NA,NA,NA,NA,NA,2017-03-24 14:08:03,NA,NA,NA,2017-03-24 22:01:19
"355","Rancagua II",62,420,"-34.143888375919","-70.737131207664","http://aqicn.org/city/chile/rancagua-ii/","pm25","2017-03-24 13:00:00","-03:00",15.76,68,1016,36,1.5,NA,62,9,NA,NA,NA,NA,NA,2017-03-24 14:08:03,NA,NA,NA,2017-03-24 22:01:19
"356","La Florida",40,421,"-33.516630362266","-70.588123961971","http://aqicn.org/city/chile/la-florida/","pm10","2017-03-24 14:00:00","-03:00",15.76,68,1016,40,2.2,5.7,28,14.6,22.6,NA,NA,NA,NA,2017-03-24 14:08:03,NA,NA,NA,2017-03-24 22:01:19
"357","Curic",35,422,"-34.974925077541","-71.233967512329","http://aqicn.org/city/chile/curico/","pm25","2017-03-24 13:00:00","-03:00",15.3,68,1016,33,NA,NA,35,NA,NA,NA,NA,NA,NA,2017-03-24 14:08:03,NA,NA,NA,2017-03-24 22:01:19
"358","U.C. Maule",54,423,"-35.435725588722","-71.619553864003","http://aqicn.org/city/chile/u.c.-maule/","pm25","2017-03-24 11:00:00","-03:00",17.89,96,983.83,34,NA,NA,54,NA,NA,NA,NA,NA,NA,2017-03-24 14:08:03,NA,NA,NA,2017-03-24 22:01:19
"359","Universidad de Talca",29,424,"-71.633396474869","-35.406582744695","http://aqicn.org/city/chile/universidad-de-talca/","pm25","2017-03-24 13:00:00","-03:00",20.12,84,983.75,29,NA,NA,29,NA,NA,NA,NA,NA,NA,2017-03-24 14:08:03,NA,NA,NA,2017-03-24 22:01:19
"360","Las Encinas Temuco",60,425,"-38.74869912298","-72.620788228172","http://aqicn.org/city/chile/las-encinas-temuco/","pm25","2017-03-24 13:00:00","-03:00",23.02,69,1006.2,40,NA,NA,60,6.7,NA,NA,NA,NA,NA,2017-03-24 14:08:03,NA,NA,NA,2017-03-24 22:01:19
"361","Padre Las Casas II",74,426,"-38.764767451719","-72.598795682209","http://aqicn.org/city/chile/padre-las-casas-ii/","pm25","2017-03-24 13:00:00","-03:00",23.02,69,1006.2,44,NA,NA,74,5.5,NA,NA,NA,NA,NA,2017-03-24 14:08:03,NA,NA,NA,2017-03-24 22:01:19
"362","Museo Ferroviario",6,427,"-38.725302444781","-72.571192550926","http://aqicn.org/city/chile/museo-ferroviario/","pm10",NA,"2017-01-09 10:00:00",15,88,1009,6,NA,NA,8,3,NA,NA,NA,NA,NA,2017-03-24 14:08:03,NA,NA,NA,2017-03-24 22:01:19
"363","Osorno",118,428,"-40.584478665958","-73.11871982209","http://aqicn.org/city/chile/osorno/","pm25","2017-03-24 13:00:00","-03:00",15.15,62,NA,51,NA,NA,118,NA,NA,NA,NA,NA,NA,2017-03-24 14:08:03,NA,NA,NA,2017-03-24 22:01:19
"364","Independencia",68,429,"-33.422301","-70.651162","http://aqicn.org/city/chile/independencia/","pm25","2017-03-24 13:00:00","-03:00",18.14,72,1017,42,NA,43.1,68,4.2,2.4,NA,NA,NA,NA,2017-03-24 14:08:03,NA,NA,NA,2017-03-24 22:01:19
"365","Las Condes",79,430,"-33.37677352033","-70.523326784061","http://aqicn.org/city/chile/las-condes/","pm25","2017-03-24 13:00:00","-03:00",18.14,72,1017,53,NA,28,79,4.8,6.8,NA,NA,NA,NA,2017-03-24 14:08:03,NA,NA,NA,2017-03-24 22:01:19
"366","Parque O'Higgins",63,431,"-33.464142","-70.660797","http://aqicn.org/city/chile/parque-ohiggins/","pm25","2017-03-24 13:00:00","-03:00",18.14,72,1017,50,NA,23.6,63,6,6.6,NA,NA,NA,NA,2017-03-24 14:08:03,NA,NA,NA,2017-03-24 22:01:19
"367","Pudahuel",58,432,"-33.437811379126","-70.750171233135","http://aqicn.org/city/chile/pudahuel/","pm25","2017-03-24 13:00:00","-03:00",18.14,72,1017,37,NA,17.1,58,3.9,5.4,NA,NA,NA,NA,2017-03-24 14:08:03,NA,NA,NA,2017-03-24 22:01:19
"368","El Bosque",70,434,"-33.547099645619","-70.666204101852","http://aqicn.org/city/chile/el-bosque/","pm25","2017-03-24 13:00:00","-03:00",15.76,68,1016,37,0.5,17.4,70,4.5,3.3,NA,NA,NA,NA,2017-03-24 14:08:03,NA,NA,NA,2017-03-24 22:01:19
"369","Cerro Navia",46,435,"-33.433089610143","-70.732147868717","http://aqicn.org/city/chile/cerro-navia/","pm25","2017-03-24 13:00:00","-03:00",18.14,72,1017,23,NA,12.6,46,1.8,10.3,NA,NA,NA,NA,2017-03-24 14:08:03,NA,NA,NA,2017-03-24 22:01:19
"370","Puente Alto",64,436,"-33.591390623022","-70.594788","http://aqicn.org/city/chile/puente-alto/","pm25","2017-03-24 13:00:00","-03:00",15.76,68,1016,45,1.6,7.2,64,5,8.4,NA,NA,NA,NA,2017-03-24 14:08:03,NA,NA,NA,2017-03-24 22:01:19
"371","Talagante",54,437,"-33.673752071375","-70.953064737434","http://aqicn.org/city/chile/talagante/","pm25","2017-03-24 13:00:00","-03:00",15.76,68,1016,28,1.4,0.7,54,2.3,13.2,NA,NA,NA,NA,2017-03-24 14:08:03,NA,NA,NA,2017-03-24 22:01:19
"372","Quilicura",NA,438,"-33.365775677885","-70.748288055225","http://aqicn.org/city/chile/quilicura/","pm10","2016-04-28 19:00:00","-0300",15.66,93,1018,83,NA,32.7,115,12.4,2,NA,NA,NA,NA,2017-03-24 14:08:03,NA,NA,NA,2017-03-24 22:01:19
"373","Valdivia",63,439,"-39.831316104673","-73.22851282209","http://aqicn.org/city/chile/valdivia/","pm25","2017-03-24 13:00:00","-03:00",16.15,72,1015,31,1.5,4.5,63,NA,10.1,NA,NA,NA,NA,2017-03-24 14:08:03,NA,NA,NA,2017-03-24 22:01:19
"374","Bomberos",54,6504,"-101.355873","20.67495","http://aqicn.org/city/mexico/guanajuato/bomberos/","pm10","2017-03-24 17:00:00","-06:00",28.15,23,1021,54,7.2,4.4,47,0.1,32.8,3.5,NA,306.7,NA,2017-03-24 19:34:19,NA,NA,NA,2017-03-24 22:01:19
"375","Bomberos",115,440,"-22.111064","-70.210828","http://aqicn.org/city/chile/bomberos/","pm25","2017-03-24 14:00:00","-03:00",21.92,85,NA,66,0.4,0.2,115,4.9,10.3,NA,NA,NA,NA,2017-03-24 14:08:03,NA,NA,NA,2017-03-24 22:01:19
"376","Estacin Centro",54,441,"-22.462144644634","-68.92806169339","http://aqicn.org/city/chile/estacion-centro/","pm25","2017-03-24 13:00:00","-03:00",23.15,35,1026,24,2,NA,54,4,17.7,NA,NA,NA,NA,2017-03-24 14:08:03,NA,NA,NA,2017-03-24 22:01:19
"377","INIA, Chilln",25,442,"-36.594880886514","-72.089253650482","http://aqicn.org/city/chile/inia--chillan/","pm10","2017-03-24 14:00:00","-03:00",16.49,87,1016,25,NA,NA,NA,NA,NA,NA,NA,NA,NA,2017-03-24 14:08:03,NA,NA,NA,2017-03-24 22:01:19
"378","Puren",54,443,"-36.616167751711","-72.093040558483","http://aqicn.org/city/chile/puren/","pm25","2017-03-24 13:00:00","-03:00",16.49,87,1016,30,NA,NA,54,NA,NA,NA,NA,NA,NA,2017-03-24 14:08:03,NA,NA,NA,2017-03-24 22:01:19
"379","21 de mayo",53,444,"-37.471182288689","-72.36146284977","http://aqicn.org/city/chile/21-de-mayo/","pm25","2017-03-24 13:00:00","-03:00",16.49,87,1016,44,NA,NA,53,NA,NA,NA,NA,NA,NA,2017-03-24 14:08:03,NA,NA,NA,2017-03-24 22:01:19
"380","Coyhaique",74,445,"-45.57996447948","-72.061125987766","http://aqicn.org/city/chile/coyhaique/","pm25","2017-03-24 13:00:00","-03:00",14.51,62,1013,48,NA,NA,74,NA,20.4,NA,NA,NA,NA,2017-03-24 14:08:03,NA,NA,NA,2017-03-24 22:01:19
"381","Dongcheng Dongsi",151,446,"39.929","116.417","http://aqicn.org/city/beijing/dongchengdongsi/","pm25","2017-03-25 01:00:00","+08:00",4,93,1022,80,1.1,29.8,151,10.9,0.9,1.8,NA,270,3,2017-03-24 14:08:03,NA,NA,NA,2017-03-24 22:01:19
"382","Temple of Heaven, Dongcheng",127,447,"116.407","39.886","http://aqicn.org/city/beijing/dongchengtiantan/","pm25","2017-03-25 01:00:00","+08:00",4,93,1022,73,1.1,17.4,127,10,0.9,1.8,NA,270,3,2017-03-24 14:08:03,NA,NA,NA,2017-03-24 22:01:19
"383","West Park officials",152,448,"39.929","116.339","http://aqicn.org/city/beijing/xichengguanyuan/","pm25","2017-03-25 01:00:00","+08:00",4,93,1022,132,1.1,27.5,152,9.1,0.9,1.8,NA,270,3,2017-03-24 14:08:03,NA,NA,NA,2017-03-24 22:01:19
"384","Wanshou Temple",152,449,"39.878","116.352","http://aqicn.org/city/beijing/xichengwanshouxigong/","pm25","2017-03-25 01:00:00","+08:00",4,93,1022,64,1.1,33,152,11.8,0.9,1.8,NA,270,3,2017-03-24 14:08:03,NA,NA,NA,2017-03-24 22:01:19
"385","Chaoyang Olympic Sports Center",152,450,"39.982","116.397","http://aqicn.org/city/beijing/chaoyangaotizhongxin/","pm25","2017-03-25 01:00:00","+08:00",4,93,1022,108,1.1,37.5,152,10.9,2.1,1.8,NA,270,3,2017-03-24 14:08:03,NA,NA,NA,2017-03-24 22:01:19
